[{"geoname_id": 3040051, "name": "les Escaldes", "ascii_name": "les Escaldes", "country": "AD", "lat": 42.50729, "lng": 1.53414, "population": 15853, "alt_names": "Ehskal'des-Ehndzhordani,Ehskal'des-Ehngordani,Escaldes,Escaldes-Engordany,Les Escaldes,aisakaladesa-inagoradani,askalds-angwrdany,askalds-anګwrdany,askaldys-anjwrdany,askalڈs-angwrڈany,esakaladesa-enagordani,eskaladesa-enagordani,esukarudesu=engorudani jiao qu,lai sai si ka er de-en ge er da,ʿisikaልdesi-ʿenigoridani,Эскальдес-Энгордани,Эскальдес-Энджордани,إسكالديس-إنجورداني,اسکالدس-انګوردانی,اسکالدس-انگوردانی,اسکالڈس-انگورڈانی,एस्कलडेस-एनगोर्डानी,এসকালডেস-এনগোর্ডানি,ਐਸਕਾਲਡੇਸ-ਇਨਗੋਰਡਾਨੀ,ኢስካልዴስ-ኤንጎርዳኒ,エスカルデス＝エンゴルダニ教区,萊塞斯卡爾德-恩戈爾達,萊塞斯卡爾德－恩戈爾達"}, {"geoname_id": 3041563, "name": "Andorra la Vella", "ascii_name": "Andorra la Vella", "country": "AD", "lat": 42.50779, "lng": 1.52109, "population": 20430, "alt_names": "ALV,Ando-la-Vyey,Andora,Andora la Vela,Andora la Velja,Andora lja Vehl'ja,Andoro Malnova,Andorra,Andorra Tuan,Andorra a Vella,Andorra la Biella,Andorra la Vella,Andorra la Vielha,Andorra-a-Velha,Andorra-la-Vel'ja,Andorra-la-Vielye,Andorre-la-Vieille,Andò-la-Vyèy,Andòrra la Vièlha,an dao er cheng,andolalabeya,andwra la fyla,Ανδόρρα,Андора ла Веля,Андора ла Веља,Андора ля Вэлья,Андорра-ла-Велья,אנדורה לה וולה,أندورا لا فيلا,አንዶራ ላ ቬላ,アンドラ・ラ・ヴェリャ,安道爾城,안도라라베야"}, {"geoname_id": 363243, "name": "Sarandë", "ascii_name": "Sarande", "country": "AL", "lat": 39.87534, "lng": 20.00477, "population": 22613, "alt_names": "Agioi,Agioi Saranta,Ayii Saranda,Hagios Saranta,Onchesmus,Porto Edda,Santa Quaranta,Santi Quaranta,Saranda,Sarande,Sarandë,Sarandė,Saranta,XSA,Zogaj,sa lan da,salandeo,saranda,sarande,sarandh,saranide,sarnda,sarndہ,srndh,Άγιοι Σαράντα,Саранда,Սարանդա,סרנדה,ساراندا,سارانده,ساراندہ,سارندا,سارندہ,सारांडे,সারান্দে,ਸਾਰਾਂਡੇ,ሳራንዴ,サランダ,萨兰达,사란더"}, {"geoname_id": 781988, "name": "Pogradec", "ascii_name": "Pogradec", "country": "AL", "lat": 40.9025, "lng": 20.6525, "population": 46070, "alt_names": "Opshtina Pogradec,Podgradec,Pogradec,Pogradeci,Pogradecis,Pogradets,bo ge la de ci,bwghradtsh,pogeuladecheu,pogradaika,pogradeka,poguradetsu,pwgradts,pwgrdz,Πόγραδετς,Општина Поградец,Поградец,Подградец,פוגרדץ,بوغرادتش,پوگرادتس,पोग्रादेक,পোগ্রাডেক,ਪੋਗ੍ਰਾਡੈਕ,ፖግradeci,ፖግራደች,ポグラデツ,波格拉德茨,포그라데츠"}, {"geoname_id": 782519, "name": "Librazhd", "ascii_name": "Librazhd", "country": "AL", "lat": 41.17944, "lng": 20.315, "population": 23312, "alt_names": "Labrazhd,Libohov,Libohovo,Libokhovon,Librash,Librazdi,Librazdis,Librazhd,Librazhdi,Librazhet,Libraždi,Libraždis,li bu la shen de,libiraዝdi,librajhada,librajhada,librajhda,lybrajd,lybrazd,lybrazhd,riburazudo,Либражд,Либражди,Лібражд,ليبراجد,لیبرازد,لیبراژد,लिब्राझद,লিব্রাঝ্ড,ਲਿਬ੍ਰਾਝ਼ਡ,ሊብራዝድ,リブラズド,利布拉什德"}, {"geoname_id": 782661, "name": "Kukës", "ascii_name": "Kukes", "country": "AL", "lat": 42.07694, "lng": 20.42194, "population": 36125, "alt_names": "Cucus,KFZ,Kukes,Kukesi,Kuks,Kuksi,Kukuch,Kukus,Kukush,Kukës,Kukësi,Kˌұkes,Kүkes,kukesa,kukesi,kukesu,kwks,kwkys,Кукес,Кукуш,Кукъс,Күкес,Құкес,كوكيس,کوکس,کوکیس,कुकेस,কুকেস,ਕੁਕੇਸ,ኩኬስ,クケス"}, {"geoname_id": 782756, "name": "Korçë", "ascii_name": "Korce", "country": "AL", "lat": 40.61861, "lng": 20.78083, "population": 58259, "alt_names": "Corce,Corcë,Coritsa,Coritza,Coriza,Corizza,Corriza,Ghiortsa Corcia,Goerice,Gorica,Goritsa,Görice,Korca,Korce,Korcha,Korche,Korcza,Korica,Korice,Koritsa,Koritza,Korrca,Korrce,Korrça,Korrçë,Korytsa,Korça,Korçë,Korča,Korčė,Körice,karce,ke er cha,koleucheo,korace,korce,korucha,kwerice,kwrchh,kwrchې,qwrtsht,qwrzh,Κορυτσά,Горица,Корча,Կորչա,קורצה,قورتشة,کورچه,کورچہ,کورچې,कोर्चे,কর্চে,ਕੋਰਚੇ,ኮርቼ,コルチャ,科尔察,코르처"}, {"geoname_id": 783148, "name": "Gjirokastër", "ascii_name": "Gjirokaster", "country": "AL", "lat": 40.07583, "lng": 20.13889, "population": 23437, "alt_names": "Agirocastro,Arghirocastru,Arghyrocastro,Argirocastro,Argirokastro,Argyrocastrum,Argyrokastro,Argyrokastron,Aryirokastron,Cirokastra,Dzhirokastra,Ergheni,Ergiri,GJirokastra,Ghinokastre,Girokasteris,Girokastra,Girokastro,Gjinokaster,Gjinokastra,Gjinokastre,Gjinokastrer,Gjinokastër,Gjirokaster,Gjirokastra,Gjirokastre,Gjirokastro,Gjirokastrë,Gjirokastër,Jirokaster,arjyr,girokasatara,girokasiteri,girokastara,gyrwqstrh,ji nuo ka si te,jilokaseuteoleu,jirokasutora,jyrwkastr,jyrwkastra,Đirokastar,Đirokastra,Αργυρόκαστρο,Αργυρόκαστρον,Ђирокастар,Ђирокастра,Ѓирокастро,Аргирокастро,Гирокастра,Гирокастро,Гірокастра,Джирокастра,גירוקסטרה,ارجیر,جيروكاسترا,جیروکاستر,ګyrwkastra,ګیروکاسترا,गिरोकास्टर,গিরোকাস্টার,ਗਿਰੋਕਾਸਟਰ,გიროკასტრა,ጊሮካስተር,ジロカストラ,吉诺卡斯特,지로카스터르"}, {"geoname_id": 783263, "name": "Elbasan", "ascii_name": "Elbasan", "country": "AL", "lat": 41.11138, "lng": 20.08224, "population": 100903, "alt_names": "Ehl'basan,Ehlbasan,Elbasan,Elbasani,Elbassan,Konukh,ailabasana,albasan,albsan,elabasana,erubasan,ʿeልbasani,Елбасан,Коњух,Элбасан,Эльбасан,الباسان,البصان,एलबासान,এলবাসান,ਐਲਬਾਸਾਨ,ኤልባሳን,エルバサン"}, {"geoname_id": 783508, "name": "Bulqizë", "ascii_name": "Bulqize", "country": "AL", "lat": 41.49167, "lng": 20.22194, "population": 26826, "alt_names": "Bul'kiza,Bulchica,Bulcica,Bulciza,Bulkiza,Bulkize,Bulkizė,Bulqiza,Bulqize,Bulqizë,Bulquize,Bulćiza,Bulčica,bu er qi cha,bulakija,bulakiza,burukiza,buልkiza,bwlqyza,Булкиза,Булчица,Булькиза,Булькіза,بولقيزا,بولقیزا,بولچیزہ,बुलकिजा,বুলকিজা,ਬੁਲਕੀਜ਼,ቡልኪዛ,ブルキザ,布爾奇察"}, {"geoname_id": 3183719, "name": "Vlorë", "ascii_name": "Vlore", "country": "AL", "lat": 40.4696, "lng": 19.48379, "population": 115261, "alt_names": "Au'lon,Au’lon,Avlon,Avlona,Avlonas,Avlonya,VLO,VRR,Vallona,Valona,Vl'ora,Vliore,Vliorė,Vljora,Vlona,Vlone,Vlonë,Vlora,Vlore,Vlorë,Vlyora,Vļora,Wlora,beulloleo,bhlore,fa luo la,flwrh,valore,vlore,vurora,wlo rex,wlwrh,wlwrې,Αυλώνας,Валона,Вльора,Влёра,Վլորա,ולורה,فلوره,ولوره,ولورہ,ولورې,व्लोरे,ভ্লোরে,ਵਲੋਰੇ,วโลเรอ,ቫሎሬ,ヴロラ,发罗拉,블로러"}, {"geoname_id": 3183875, "name": "Tirana", "ascii_name": "Tirana", "country": "AL", "lat": 41.32744, "lng": 19.81866, "population": 418495, "alt_names": "TIA,Terana,Theranda,Tiorana,Tiorána,Tiran,Tiran khot,Tiran-a,Tirana,Tiranae,Tirane,Tirano,Tiranë,Tirāna,Trnava,Tyrana,Tyranna,Tírana,Tîrana,Tėrana,de la na,tilana,tirana,tyrana,tyrnh,Τίρανα,Тиран хот,Тиранæ,Тирана,Тиране,Трнава,Тырана,Տիրանա,טיראנא,טירנה,تىرانا,تيرانا,تیرانا,तिराना,তিরানা,ਤਿਰਾਨਾ,ଟିରାନା,டிரானா,ടിറാന,ติรานา,ཐིས་རན།,ტირანა,ቲራና,ティラナ,地拉那,티라나"}, {"geoname_id": 3184081, "name": "Shkodër", "ascii_name": "Shkoder", "country": "AL", "lat": 42.06828, "lng": 19.51258, "population": 95553, "alt_names": "Iskodra,Scutari,Shkoder,Shkodra,Shkodër,Skadar,Skodra,Szkodra,sakodara,shkwdr,shkwdra,shukodora,sikwederi,skwtary,sqwdr,İşkodra,Şkodra,Škodra,Скадар,Шкодер,Шкодра,שקודר,سكوتاري,شکودر,شکودرا,शकोडर,শকোডার,ਸ਼ਕੋਡਰ,ስኮደር,シュコドラ"}, {"geoname_id": 3184271, "name": "Rrashbull", "ascii_name": "Rrashbull", "country": "AL", "lat": 41.32278, "lng": 19.51028, "population": 20099, "alt_names": "Rashbulle,Rezbul,Režbul,Rrashbull,Rrashbulle,Rrashbulli,Rrashbulli Arapaj,Rrashbullë"}, {"geoname_id": 3184497, "name": "Peqin", "ascii_name": "Peqin", "country": "AL", "lat": 41.04611, "lng": 19.75111, "population": 16580, "alt_names": "Pecin,Pekin,Pekini,Pekinis,Pekinj,Peqin,Peqini,Peqinj,Pequini,bykyn,pchyn,pechin,pei jin,pekina,pkyn,Пекин,Пекини,Пеќин,بيكين,پچین,پکین,पेकिन,পেকিন,ਪੇਕਿਨ,ፐkini,ፐኪን,ペチン,佩今,페친"}, {"geoname_id": 3184517, "name": "Patos Fshat", "ascii_name": "Patos Fshat", "country": "AL", "lat": 40.64278, "lng": 19.65083, "population": 22679, "alt_names": "Patos Fshat,Patosi Fshat"}, {"geoname_id": 3184518, "name": "Patos", "ascii_name": "Patos", "country": "AL", "lat": 40.68333, "lng": 19.61944, "population": 16000, "alt_names": "Pahtosa,Pahtosi,Patos,Patosi,Patosis,pa tu si,Патос,Патоси,帕圖斯"}, {"geoname_id": 3184862, "name": "Lushnjë", "ascii_name": "Lushnje", "country": "AL", "lat": 40.94194, "lng": 19.705, "population": 63135, "alt_names": "Liusne,Liušnė,Ljushna Cod a Gomares,Ljushnja,Ljusnje,Ljušnje,Lousnia,Lushne,Lushnja,Lushnje,Lushnjë,Lusnje,Lušnje,lu shen nie,lusan'ya,lusanaja,lushiniya,lusyunyeo,lwshnya,lwshnyh,rushunya,Лушня,Лушње,Люшня,لوشنيه,لوشنیا,لوشنیہ,लुशन्या,লুশনজা,ਲੁਸ਼ਨਜਾ,ሉሽንያ,ルシュニャ,卢什涅,루슈녀"}, {"geoname_id": 3184935, "name": "Lezhë", "ascii_name": "Lezhe", "country": "AL", "lat": 41.78361, "lng": 19.64361, "population": 18695, "alt_names": "Alessio,Les,Lesh,Leshe,Leshi,Leska,Leze,Lezh,Lezha,Lezhe,Lezhë,Leş,Ležė,Lisi,Ljes,Ljesh,Lješ,Lyesh,lai shen,lejeo,lejhe,leze,lezha,lyz,lyzhh,lzhh,reje,Љеш,Лежа,Леска,ليز,لژه,لژہ,لیژه,लेझे,লেঝে,ਲੇਝੇ,ლეჟა,ሌዜ,レジェ,莱什,레저"}, {"geoname_id": 3185060, "name": "Kuçovë", "ascii_name": "Kucove", "country": "AL", "lat": 40.80028, "lng": 19.91667, "population": 31077, "alt_names": "Kuchova,Kucova,Kucove,Kuçova,Kuçovë,Petrolia,Qyteti Stalin,Stalin,kuchovua,kucobha,kucova,kwchwwa,kwtshwfa,Кучова,Сталин,كوتشوفا,کوچووا,कुचोवा,কুচোভা,ਕੁਚੋਵਾ,ኩቾቫ,クチョヴァ"}, {"geoname_id": 3185082, "name": "Krujë", "ascii_name": "Kruje", "country": "AL", "lat": 41.50917, "lng": 19.79278, "population": 51191, "alt_names": "Akcehisar,Akçehisar,Croia,Cruja,Krna,Kroia,Kroja,Kroya,Kroïa,Krue,Krueja,Kruja,Kruje,Krujë,Kruya,kiruya,kru'a,kruya,krwh,krwja,krwے,kuruya,Круя,كروجا,کروه,کروے,क्रुया,ক্রুয়া,ਕ੍ਰੁਆ,ክሩያ,クルヤ"}, {"geoname_id": 3185211, "name": "Kavajë", "ascii_name": "Kavaje", "country": "AL", "lat": 41.18556, "lng": 19.55694, "population": 30012, "alt_names": "Cavaia,Cavaja,Kavaia,Kavaj,Kavaja,Kavaje,Kavajë,Kavajė,Kavalye,Kavaya,Kavaïa,Kawaja,ka wa ya,kabayeo,kabhaja,kafaja,kavaja,kavaya,kavuaya,kawaja,kawayh,Кавайе,Кавая,Каваја,كافاجا,کاواجا,کاوایه,کاوایہ,कवाजा,কাভাজা,ਕਾਵਾਜਾ,ካቫያ,カヴァヤ,卡瓦亚,카바여"}, {"geoname_id": 3185638, "name": "Fushë-Krujë", "ascii_name": "Fushe-Kruje", "country": "AL", "lat": 41.47833, "lng": 19.71778, "population": 17877, "alt_names": "Fus e Krujs,Fush' e Krujes,Fush-Kruja,Fushe e Krujes,Fushe-Kruja,Fushe-Kruje,Fushë e Krujës,Fushë-Kruja,Fushë-Krujë,Fush’ e Krujës,Fuš e Krujs,Krojsko Pole,Teke Fuscia Crujs,Кројско Поле,Фуше-Круя"}, {"geoname_id": 3185670, "name": "Fier-Çifçi", "ascii_name": "Fier-Cifci", "country": "AL", "lat": 40.71667, "lng": 19.56667, "population": 60995, "alt_names": ""}, {"geoname_id": 3185672, "name": "Fier", "ascii_name": "Fier", "country": "AL", "lat": 40.7251, "lng": 19.55823, "population": 56297, "alt_names": "Fearica,Fier,Fieri,Fieris,Fijer,Fjer,Fjeri,a pha'ira,fei xia er,fieru,fyr,fyyr,phi'ara,phiyara,pieleu,Фиер,Фиери,Фієрі,Фјер,فيير,فیر,अ फाइर,फियर,ফিয়ার,ਫਿਅਰ,ፊyeri,ፊየር,フィエル,非夏爾,피에르"}, {"geoname_id": 3185728, "name": "Durrës", "ascii_name": "Durres", "country": "AL", "lat": 41.32355, "lng": 19.45469, "population": 195920, "alt_names": "DUH,Drac,Drach,Drač,Duraso,Durazo,Durazzo,Durazzu,Durehs,Dures,Duresi,Duresis,Durrazo,Durres,Durresa,Durresi,Durrsi,Durrës,Durrësi,Durts,Durus,Durz,Durësi,Dyrrachio,Dyrrachium,Dyrrakhion,Dyrrhachium,Epidamnos,deresi,dou la si,dourasu,draj,dras,duleoseu,duresa,duresi,durres,dwrs,dyuresa,Δυρράχιο,Драч,Дуррес,Дуръс,Дурэс,דורס,دراج,دراس,ډyrys,ډیریس,ड्यूरेस,ডুরেস,ਡੁਰੇਸ,ดูร์เรส,დურესი,ደረስ,ドゥラス,都拉斯,두러스"}, {"geoname_id": 3186084, "name": "Berat", "ascii_name": "Berat", "country": "AL", "lat": 40.70583, "lng": 19.95222, "population": 62232, "alt_names": "Belgrad,Beligrad,Berat,Berati,Beration,Beratis,Berta,Bərat,Lezskigrad,Verati,Veration,belateu,berata,berati,berato,brat,byrat,pei la te,Μπεράτ,Белград,Берат,Բերատ,בראט,برات,بيرات,بیرات,बेरात,বেরাত,ਬੇਰਾਤ,ბერატი,በራት,ベラト,培拉特,베라트"}, {"geoname_id": 2600996, "name": "Döbling", "ascii_name": "Doebling", "country": "AT", "lat": 48.25, "lng": 16.33333, "population": 75418, "alt_names": "Sievering"}, {"geoname_id": 2760910, "name": "Wolfsberg", "ascii_name": "Wolfsberg", "country": "AT", "lat": 46.84056, "lng": 14.84417, "population": 25035, "alt_names": "Wolfsberg"}, {"geoname_id": 2761164, "name": "Wilten", "ascii_name": "Wilten", "country": "AT", "lat": 47.25829, "lng": 11.38808, "population": 18142, "alt_names": ""}, {"geoname_id": 2761353, "name": "Wiener Neustadt", "ascii_name": "Wiener Neustadt", "country": "AT", "lat": 47.80485, "lng": 16.23196, "population": 44820, "alt_names": "Becko Novo Mjesto,Becsujhely,Becsujvaros,Bečko Novo Mjesto,Bécsújhely,Bécsújváros,Dunajsko Novo mesto,Nemet-Ujhely,Nova civitas Vindobonensis,Német-Újhely,Videnske Nove Mesto,Viedenske Nove Mesto,Viedenské Nové Mesto,Viner Noistat,Viner Nojshhat,Viner Nojshtat,Viner-Nojshtadt,Viner-Nojstadt,Vyner Noistatas,Vyner Noištatas,Vídeňské Nové Město,Weana Neistod,Wiener Neustadt,Wr. Neustadt,bineonoisyutateu,fynr nwyshtat,wei ye na xin cheng,wynr nwyshtat,wynr nwystt,Βίνερ Νόιστατ,Винер Нойщат,Винер Нојштат,Винер-Нойштадт,Вінер-Нойштадт,וינר נוישטט,فينر نويشتات,وینر نویشتات,وینر نیوشٹڈ,ვინერ-ნოიშტადტი,ウィーナー・ノイシュタット,維也納新城,비너노이슈타트"}, {"geoname_id": 2761369, "name": "Vienna", "ascii_name": "Vienna", "country": "AT", "lat": 48.20849, "lng": 16.37208, "population": 1691468, "alt_names": "Bec,Bech,Becs,Beç,Beč,Bienne,Bécs,Dunaj,Fiena,VIE,Veen,Vena,Viden,Viden',Vieden,Viedeň,Vien,Viena,Vienna,Vienne,Vieno,Viin,Vin,Vinarborg,Vindobona,Vine,Viyana,Viên,Vjena,Vjenna,Vyana,Vídeň,Vín,Vínarborg,Vīne,Wean,Wene,Wenen,Wieden,Wiedeń,Wien,Wjedzyn,Wjedźyń,bienna,bin,fyyna,uin,vena,viyana,wei ye na,weiynna,wyn,wynh,Βιέννη,Беч,Вена,Виена,Відень,Վիեննա,וינה,فيينا,وین,वियना,เวียนนา,ཝ་ཨ་ན།,ཝི་ཨེ་ན།,ვენა,ቪየና,ウィーン,維也納,비엔나,빈"}, {"geoname_id": 2761436, "name": "Wetzelsdorf", "ascii_name": "Wetzelsdorf", "country": "AT", "lat": 47.05293, "lng": 15.39923, "population": 15687, "alt_names": "Wetzelsdorf"}, {"geoname_id": 2761524, "name": "Wels", "ascii_name": "Wels", "country": "AT", "lat": 48.16667, "lng": 14.03333, "population": 16857, "alt_names": "Ovilava,Vel's,Wels,fls,fyls,oyelasa,velasa,velsa,vuerusu,weልsi,wls,wyls,wylz,Вельс,ולס,فلس,فيلس,ویلز,ویلس,वेल्स,ওয়েলস,ਵੇਲਸ,ወልስ,ヴェルス"}, {"geoname_id": 2762372, "name": "Villach", "ascii_name": "Villach", "country": "AT", "lat": 46.61028, "lng": 13.85583, "population": 58882, "alt_names": "Beljak,Filachas,Filakh,Fillach,Fillaha,Fillakh,QVL,Santicum,Vilac,Villach,Villaco,bhilaca,fei la he,fil lakh,firahha,fylakh,pilakhi,pillaheu,pylʼk,vilaca,vilaci,wylakh,Φίλλαχ,Филах,Филлах,Філах,Філлах,פילאך,فيلاخ,فیلاخ,ویلاخ,विलाच,ভিলাচ,ਵਿਲਾਚ,ฟิลลาค,ფილახი,ቪላች,フィラッハ,菲拉赫,필라흐"}, {"geoname_id": 2763423, "name": "Traun", "ascii_name": "Traun", "country": "AT", "lat": 48.22086, "lng": 14.23833, "population": 25345, "alt_names": ""}, {"geoname_id": 2763810, "name": "Telfs", "ascii_name": "Telfs", "country": "AT", "lat": 47.30707, "lng": 11.06817, "population": 15229, "alt_names": "Tel'fs,Telfs,tai er fu si,tlfs,tlps,Телфс,Тельфс,טלפס,تلفس,ტელფსი,泰爾夫斯"}, {"geoname_id": 2764178, "name": "Straßgang", "ascii_name": "Strassgang", "country": "AT", "lat": 47.03333, "lng": 15.4, "population": 16268, "alt_names": "Strassgang,Straßgang"}, {"geoname_id": 2764279, "name": "Stockerau", "ascii_name": "Stockerau", "country": "AT", "lat": 48.38333, "lng": 16.21667, "population": 16292, "alt_names": "Shhokerau,Shtokerau,Shtokkerau,Stockerau,Stokerau,astwkrayw,shi tuo ke lao,Štokerau,Штокерау,Штоккерау,Щокерау,שטוקראו,استوکرائو,შტოკერაუ,ስቶከራው,施托克勞"}, {"geoname_id": 2764359, "name": "Steyr", "ascii_name": "Steyr", "country": "AT", "lat": 48.04274, "lng": 14.42127, "population": 38331, "alt_names": "Shhajr,Shtajr,Stagier,Steiras,Steyer,Steyr,Steyr Stadt,ashtayr,shi tai er,shutaia,styyr,syutaieo,Šteiras,Στάγιερ,Штайр,Штајр,Щайр,שטייר,اشتایر,შტაირი,シュタイアー,施泰爾,슈타이어"}, {"geoname_id": 2765028, "name": "Simmering", "ascii_name": "Simmering", "country": "AT", "lat": 48.18333, "lng": 16.43333, "population": 101420, "alt_names": "Simmering"}, {"geoname_id": 2766429, "name": "Sankt Pölten", "ascii_name": "Sankt Poelten", "country": "AT", "lat": 48.20762, "lng": 15.63725, "population": 21911, "alt_names": "Cetium,POK,Poelten,Pölten,Saint Poelten,Saint Pölten,Sankt P'olten,Sankt Pelten,Sankt Peltenas,Sankt Poelten,Sankt Polten,Sankt Polton,Sankt Pölten,Sankt Pölton,Sankt-Pel'ten,Sankt-Pjol'tehn,Sankt-Pjol'ten,Sankt-Pyolten,Sankt-Pөltən,Sanktpeltene,St. Poelten,St. Poetn,St. Pölten,St. Pötn,Sveti Hipolit,Zan'kt Pelten,jangkeuteupoelten,jankta pyoltana,sainkata polatana,sainkta poltana,sang th pheil thein,sanikiti ፖልteni,sankata poltena,sankt bwltn,sankt pwltn,sheng pa er teng,snqt pltn,synkٹ pwlٹn,zankt pwltn,Ζανκτ Πέλτεν,Санкт Пелтен,Санкт Пьолтен,Санкт-Пельтен,Санкт-Пёльтен,Санкт-Пёльтэн,Санкт-Пөлтән,סנקט פלטן,زانکت پولتن,سانكت بولتن,سانکت پولتن,سینکت پولٹن,سینکٹ پولٹن,जांक्ट प्योल्टन,सैंक्ट पोल्टन,সাংকট পোল্টেন,ਸੈਂਕਟ ਪੋਲਟਨ,ซังท์เพิลเทิน,სანქტ-პელტენი,ሳንክት ፖልተን,ザンクト・ペルテン,聖帕爾滕,장크트푈텐"}, {"geoname_id": 2766446, "name": "Sankt Peter", "ascii_name": "Sankt Peter", "country": "AT", "lat": 47.05, "lng": 15.46667, "population": 15187, "alt_names": "Sankt Peter,Sankt Peter bei Graz"}, {"geoname_id": 2766447, "name": "Sankt Peter", "ascii_name": "Sankt Peter", "country": "AT", "lat": 46.62978, "lng": 14.34016, "population": 20320, "alt_names": "10.Bezirk,Klagenfurt 10.Bez.:St. Peter,St. Peter-Welzenegg"}, {"geoname_id": 2766522, "name": "Sankt Martin", "ascii_name": "Sankt Martin", "country": "AT", "lat": 46.61667, "lng": 14.28333, "population": 20000, "alt_names": "Sankt Martin,Smartin pri Celovcu- Otoce,St. Martin-Waidmannsdorf,XII St. Martin,Šmartin pri Celovcu- Otoče"}, {"geoname_id": 2766824, "name": "Salzburg", "ascii_name": "Salzburg", "country": "AT", "lat": 47.79941, "lng": 13.04399, "population": 157245, "alt_names": "Estado de Salzburgo,Ijolati Zaltsburg,Lungsod ng Salzburg,SZG,Saizburg,Salcburg,Salcburk,Salisburgh,Salisburgium,Salisburgo,Salisburgu,Salisburgum,Saltsmpournk,Saltzburg,Salzborg,Salzbourg,Salzburg,Salzburgi liidumaa,Salzburgo,Salzbursko,Sałisburgo,Såizburg,Zal'cburg,Zalcburg,Zalcburga,Zalcburgas,Zaltsburq,chai er ci bei ge,jalcheubuleukeu,jaltsaburga,sa er ci bao,sa er si bao,salajaburga,salazabaraga,saljhabarga,sals bur k,salzaborga,salzbrg,salzbwrgh,salzbwrګ,saልዝburiግ,zaltsburgi,zaltsbwrg,zarutsuburuku,zlzbwrg,Σάλτσμπουργκ,Залцбург,Зальцбург,Иёлати Залтсбург,Салцбург,Զալցբուրգ,זאלצבורג,זלצבורג,زالتسبورگ,سالزبرگ,سالزبورغ,سالزبورګ,जाल्त्सबुर्ग,साल्ज़बोर्ग,সলজবুর্গ,ਸਾਲਜ਼ਬਰਗ,સાલ્ઝબર્ગ,ಸಾಲ್ಜ್‌ಬರ್ಗ್‌,ซาลซ์บูร์ก,ზალცბურგი,ሳልዝቡርግ,ザルツブルク,柴尔兹孛格,萨尔斯堡,萨尔茨堡,薩爾斯堡,잘츠부르크"}, {"geoname_id": 2766922, "name": "Saalfelden am Steinernen Meer", "ascii_name": "Saalfelden am Steinernen Meer", "country": "AT", "lat": 47.42681, "lng": 12.848, "population": 16790, "alt_names": "Saafelden,Saalfelden,Saalfelden am Steinernen Meer,Salfelden,Zal'fel'den-am-Shtajnernen-Meer,Зальфельден-ам-Штайнернен-Меер"}, {"geoname_id": 2768442, "name": "Pradl", "ascii_name": "Pradl", "country": "AT", "lat": 47.26539, "lng": 11.4152, "population": 32588, "alt_names": ""}, {"geoname_id": 2769110, "name": "Perchtoldsdorf", "ascii_name": "Perchtoldsdorf", "country": "AT", "lat": 48.11935, "lng": 16.26607, "population": 15047, "alt_names": "Paedaschduaf,Perchtoldsdorf,Perkhtol'dsdorf,Perkhtoldzdorf,Petersdorf,Pädaschduaf,pei xi tuo er ci duo fu,prshtwlsdwrf,Перхтолдздорф,Перхтольдсдорф,پرشتولسدورف,პერხტოლდსდორფი,佩希托爾茨多夫"}, {"geoname_id": 2769359, "name": "Ottakring", "ascii_name": "Ottakring", "country": "AT", "lat": 48.21667, "lng": 16.3, "population": 104627, "alt_names": "Ottakring"}, {"geoname_id": 2771335, "name": "Mödling", "ascii_name": "Moedling", "country": "AT", "lat": 48.08605, "lng": 16.28921, "population": 20555, "alt_names": "Medling,Medlingas,Mjodling,Moedling,Mödling,Mėdlingas,mdlyng,medlingi,mo de lin,mwdlyng,Медлинг,Мёдлинг,מדלינג,مودلینگ,მედლინგი,默德林"}, {"geoname_id": 2771706, "name": "Meidling", "ascii_name": "Meidling", "country": "AT", "lat": 48.16667, "lng": 16.33333, "population": 97624, "alt_names": "Meidling"}, {"geoname_id": 2772173, "name": "Lustenau", "ascii_name": "Lustenau", "country": "AT", "lat": 47.42642, "lng": 9.65851, "population": 22821, "alt_names": "Lustenau,lu si te nao,luseutenau,rusutenau,Лустенау,לוסטנאו,لوستن‌آئو,ლუსტენაუ,ルステナウ,盧斯特瑙,루스테나우"}, {"geoname_id": 2772400, "name": "Linz", "ascii_name": "Linz", "country": "AT", "lat": 48.30639, "lng": 14.28611, "population": 204846, "alt_names": "LNZ,Lentia,Linc,Linca,Lincas,Linec,Lints,Linz,lin ci,linaja,linaza,lincheu,liniዝ,lins,lintsa,lintsi,linza,lnz,lynts,lyntz,lynz,rintsu,Λιντς,Линц,Лінц,Լինց,לינץ,لنز,لينتز,لينز,لینتس,लिंज़,लिंत्स,লিনজ,ਲਿਨਜ਼,ลินซ์,ლინცი,ሊንዝ,リンツ,林茨,린츠"}, {"geoname_id": 2773913, "name": "Klosterneuburg", "ascii_name": "Klosterneuburg", "country": "AT", "lat": 48.30521, "lng": 16.32522, "population": 15614, "alt_names": "Klostehrnojburg,Klosterneuberg,Klosterneuburg,Klosternoiburgas,Klosternojburg,Vajdlingbakh-und-Shajblinshtajn,ke luo si te xin bao,klwstrnwybwrg,kurosutanoiburuku,Вайдлингбах-унд-Шайблинштайн,Клостернойбург,Клостернојбург,Клостэрнойбург,کلوسترنویبورگ,کوسٹرنیوبرگ,კლოსტერნოიბურგი,クロスターノイブルク,克洛斯特新堡"}, {"geoname_id": 2774326, "name": "Klagenfurt am Wörthersee", "ascii_name": "Klagenfurt am Woerthersee", "country": "AT", "lat": 46.62472, "lng": 14.30528, "population": 100316, "alt_names": "Celovac,Celovec,Celovec na Vrbskem jezeru,Clagenfurtum,KLU,Klagenfurt,Klagenfurt am Woerthersee,Klagenfurt am Wörthersee,Klagenfurt-am-Vjorterzee,Klagenfurte,Klāgenfurte,ke la gen fu,kilageniፉriti ʿeም weriterise,klagenaphurata aima varatharasi,klagenaphurta ama oyartharsi,klaghnfwrt am fyrtirsy,klaghnfwrt am wrtrh sy,klagnfrٹ am wrtھrsy,klagnfwrt am wrtirsh,klajenapharta ema vartharsi,kuragenfuruto,qlgnpwrt,Клагенфурт,Клагенфурт-ам-Вёртерзее,קלגנפורט,كلاغنفورت أم فيرتِرسي,کلاغنفورت ام ورتره سي,کلاگنفرٹ ام ورتھرسی,کلاگنفورت آم ورتِرسه,क्लाजेनफर्ट एम वर्थर्सी,ক্লাগেনফুর্ট আম ওয়ার্থার্সি,ਕ੍ਲਾਗੇਨਫੁਰਟ ਐਮ ਵਰਥਰਸੀ,ክላገንፉርት ኤም ወርተርሴ,クラーゲンフルト,克拉根福"}, {"geoname_id": 2775220, "name": "Innsbruck", "ascii_name": "Innsbruck", "country": "AT", "lat": 47.26266, "lng": 11.39454, "population": 132493, "alt_names": "INN,Innsbruck,Innschbruck,Insbruc,Insbruk,Insbruka,Insbrukas,Insmprouk,Inzbruk,Pons Aeni,ansbrwk,anzbrk,aynsbrwk,inasabruka,insabruka,inseubeulukeu,insuburukku,xin s brukh,yin si bei lu ke,yin si bu lu ke,İnnsbruck,İnsbruk,ʿinisibiruki,Ίνσμπρουκ,Інсбрук,Инзбрук,Инсбрук,Ինսբրուք,אינסברוק,إنسبروك,انزبرک,انسبروک,اینسبروک,इन्सब्रुक,ইন্সব্রুক,ਇਨਸਬ੍ਰੁਕ,อินส์บรุค,ინსბრუკი,ኢንስብሩክ,インスブルック,因斯孛鲁克,因斯布鲁克,인스브루크"}, {"geoname_id": 2775260, "name": "Innere Stadt", "ascii_name": "Innere Stadt", "country": "AT", "lat": 48.20906, "lng": 16.37135, "population": 16450, "alt_names": "Inner City"}, {"geoname_id": 2775371, "name": "Penzing", "ascii_name": "Penzing", "country": "AT", "lat": 48.2, "lng": 16.26667, "population": 98176, "alt_names": "Hutteldorf,Hütteldorf"}, {"geoname_id": 2775479, "name": "Hötting", "ascii_name": "Hoetting", "country": "AT", "lat": 47.26815, "lng": 11.36868, "population": 35043, "alt_names": ""}, {"geoname_id": 2775742, "name": "Hohenems", "ascii_name": "Hohenems", "country": "AT", "lat": 47.36121, "lng": 9.68694, "population": 16317, "alt_names": "Gogenems,HOH,Hohenems,Khoehnems,Khoenems,ho-enemseu,hoenemsi,hoenemusu,huo en ai mu si,hwhnms,Гогенемс,Хоенемс,Хоэнемс,هوهنمس,ჰოენემსი,ホーエネムス,霍恩埃姆斯,호에넴스"}, {"geoname_id": 2776421, "name": "Hietzing", "ascii_name": "Hietzing", "country": "AT", "lat": 48.18623, "lng": 16.2965, "population": 54265, "alt_names": ""}, {"geoname_id": 2776488, "name": "Hernals", "ascii_name": "Hernals", "country": "AT", "lat": 48.22544, "lng": 16.30871, "population": 57546, "alt_names": "Hernals"}, {"geoname_id": 2778067, "name": "Graz", "ascii_name": "Graz", "country": "AT", "lat": 47.06733, "lng": 15.44197, "population": 303270, "alt_names": "GRZ,Grac,Graca,Gracas,Graco,Gradac,Gradec,Graecia,Gratz,Graz,Grác,Gráz,Grāca,Nkrats,Qras,Styrsky Hradec,ge la ci,geulacheu,ghrats,graja,grats,gratsa,gratsi,graz,graza,guratsu,kras,Štýrský Hradec,Γκρατς,Грац,Գրաց,גראץ,غراتس,گراتس,گراز,ग्राज़,ग्रात्स,গ্রাজ,ਗ੍ਰਾਜ਼,กราซ,გრაცი,ግraዝ,ግራዝ,グラーツ,格拉茨,그라츠"}, {"geoname_id": 2779139, "name": "Fünfhaus", "ascii_name": "Fuenfhaus", "country": "AT", "lat": 48.19596, "lng": 16.3183, "population": 76396, "alt_names": ""}, {"geoname_id": 2779469, "name": "Floridsdorf", "ascii_name": "Floridsdorf", "country": "AT", "lat": 48.25, "lng": 16.4, "population": 162779, "alt_names": "Floridsdorf"}, {"geoname_id": 2779674, "name": "Feldkirch", "ascii_name": "Feldkirch", "country": "AT", "lat": 47.23645, "lng": 9.59734, "population": 33420, "alt_names": "Fel'dkirkh,Feldkirch,ferutokiruhi,fldkyrsh,fyldkrch,fyldkyrsh,fylڈkrch,pheladakiraca,pheldakarca,pheldakirca,pldqyrk,Фельдкирх,פלדקירך,فلدکیرش,فيلدكيرش,فیلدکرچ,فیلڈکرچ,फेल्डकिर्च,ফেল্ডকার্চ,ਫੇਲਡਕਿਰਚ,ፌልdikirici,ፌልድኪርች,フェルトキルヒ"}, {"geoname_id": 2779912, "name": "Essling", "ascii_name": "Essling", "country": "AT", "lat": 48.21289, "lng": 16.52442, "population": 21200, "alt_names": ""}, {"geoname_id": 2780180, "name": "Eisenzicken", "ascii_name": "Eisenzicken", "country": "AT", "lat": 47.27603, "lng": 16.25908, "population": 54353, "alt_names": "Eisenzicken"}, {"geoname_id": 2780361, "name": "Eggenberg", "ascii_name": "Eggenberg", "country": "AT", "lat": 47.07, "lng": 15.39871, "population": 20511, "alt_names": "Eggenberg"}, {"geoname_id": 2780741, "name": "Dornbirn", "ascii_name": "Dornbirn", "country": "AT", "lat": 47.41427, "lng": 9.74195, "population": 49278, "alt_names": "Dornbirn,Dornbirnas,HOH,Ntornmpirn,doleunbileun,dornbirni,dorunbirun,duo en bi en,dwrnbyrn,Ντόρνμπιρν,Дорнбирн,Дорнбірн,דורנבירן,درن‌بیرن,دورنبيرن,ڈارنبرن,ڈورنبیرن,დორნბირნი,ドルンビルン,多恩比恩,도른비른"}, {"geoname_id": 2781503, "name": "Bregenz", "ascii_name": "Bregenz", "country": "AT", "lat": 47.50311, "lng": 9.7471, "population": 29806, "alt_names": "Bregenc,Bregenca,Bregencas,Bregence,Bregencja,Bregenz,Brehgenc,Brenkentz,Brigantium,Brégence,Brēgenca,Brėgencas,XGZ,ber ken s,beulegencheu,bregenja,bregenjha,bregentsi,bregenza,brgnts,brgnz,bryghnts,bryghnz,brygnz,bu lei gen ci,buregentsu,Μπρέγκεντζ,Брегенц,Брэгенц,Բրեգենց,ברגנץ,بريغنتس,بريغنز,برگنتس,برگنز,بریگنز,ब्रेगेंज़,ब्रेगेन्झ,ব্রেগেঞ্জ,ਬ੍ਰੇਗੇਂਜ਼,เบรเกนซ์,ბრეგენცი,ብሬገንጽ,ブレゲンツ,布雷根茨,브레겐츠"}, {"geoname_id": 2781680, "name": "Bludenz", "ascii_name": "Bludenz", "country": "AT", "lat": 47.15476, "lng": 9.82255, "population": 15102, "alt_names": "Bljudenc,Bludenc,Bludenz,baludenja,biludeniዝ,bludenja,bludentsi,bludenza,blwdnts,blwdnz,blwڈnz,bu lu deng ci,burudentsu,Блуденц,Блюденц,בלודנץ,بلودنتس,بلودنز,بلوڈنز,ब्लूडेंज़,ব্লুডেঞ্জ,ਬਲੂਡੇਂਜ,ბლუდენცი,ብሉዴንዝ,ブルーデンツ,布盧登茨"}, {"geoname_id": 2782067, "name": "Baden", "ascii_name": "Baden", "country": "AT", "lat": 48.00543, "lng": 16.23264, "population": 26286, "alt_names": "Baden,Baden bei Wien,Badenas,Badene pie Vines,Bādene pie Vīnes,badenbaibin,badeni,baden・bai・uin,badn nzdyk bh wyn,wei ye na ba deng,Баден,באדן,بادن نزدیک به وین,ბადენი,バーデン・バイ・ウィーン,維也納巴登,바덴바이빈"}, {"geoname_id": 2782315, "name": "Aspern", "ascii_name": "Aspern", "country": "AT", "lat": 48.21806, "lng": 16.48306, "population": 50687, "alt_names": "Aspern,Aspern an der Donau"}, {"geoname_id": 2782480, "name": "Ansfelden", "ascii_name": "Ansfelden", "country": "AT", "lat": 48.20969, "lng": 14.29004, "population": 18251, "alt_names": "Ansfel'den,Ansfelden,Aunsfoein,Aunsföin,an si fei er deng,anspeldeni,anzfldn,Ансфелден,Ансфельден,אנספלדן,آنزفلدن,ანსფელდენი,安斯菲尔登"}, {"geoname_id": 2782555, "name": "Amstetten", "ascii_name": "Amstetten", "country": "AT", "lat": 48.1229, "lng": 14.87206, "population": 15559, "alt_names": "Amshheten,Amshteten,Amshtetten,Amsteta,Amšteta,Aumstettn,a mu shi tai teng,amshttn,amsyuteten,amushutetten,Амштетен,Амштеттен,Амщетен,آمشتتن,ამშტეტენი,アムシュテッテン,阿姆施泰滕,암슈테텐"}, {"geoname_id": 8063098, "name": "Favoriten", "ascii_name": "Favoriten", "country": "AT", "lat": 48.16116, "lng": 16.38233, "population": 201882, "alt_names": ""}, {"geoname_id": 11903636, "name": "Donaustadt", "ascii_name": "Donaustadt", "country": "AT", "lat": 48.2333, "lng": 16.46002, "population": 187007, "alt_names": ""}, {"geoname_id": 11903637, "name": "Jakomini", "ascii_name": "Jakomini", "country": "AT", "lat": 47.05441, "lng": 15.44984, "population": 32912, "alt_names": ""}, {"geoname_id": 11903638, "name": "Lend", "ascii_name": "Lend", "country": "AT", "lat": 47.08256, "lng": 15.41589, "population": 31147, "alt_names": ""}, {"geoname_id": 11903639, "name": "Geidorf", "ascii_name": "Geidorf", "country": "AT", "lat": 47.08393, "lng": 15.444, "population": 24767, "alt_names": ""}, {"geoname_id": 11903640, "name": "Sankt Leonhard", "ascii_name": "Sankt Leonhard", "country": "AT", "lat": 47.06924, "lng": 15.45784, "population": 15853, "alt_names": ""}, {"geoname_id": 11903641, "name": "Andritz", "ascii_name": "Andritz", "country": "AT", "lat": 47.11387, "lng": 15.42348, "population": 19020, "alt_names": ""}, {"geoname_id": 11903642, "name": "Gries", "ascii_name": "Gries", "country": "AT", "lat": 47.06236, "lng": 15.42421, "population": 29363, "alt_names": ""}, {"geoname_id": 12196319, "name": "Währing", "ascii_name": "Waehring", "country": "AT", "lat": 48.22611, "lng": 16.34484, "population": 51402, "alt_names": ""}, {"geoname_id": 12214069, "name": "Landstraße", "ascii_name": "Landstrasse", "country": "AT", "lat": 48.2019, "lng": 16.38792, "population": 98389, "alt_names": ""}, {"geoname_id": 12214070, "name": "Margareten", "ascii_name": "Margareten", "country": "AT", "lat": 48.1855, "lng": 16.35373, "population": 54412, "alt_names": ""}, {"geoname_id": 12214071, "name": "Mariahilf", "ascii_name": "Mariahilf", "country": "AT", "lat": 48.19571, "lng": 16.35215, "population": 31381, "alt_names": ""}, {"geoname_id": 12214072, "name": "Neubau", "ascii_name": "Neubau", "country": "AT", "lat": 48.20172, "lng": 16.34715, "population": 31521, "alt_names": ""}, {"geoname_id": 12214073, "name": "Josefstadt", "ascii_name": "Josefstadt", "country": "AT", "lat": 48.21243, "lng": 16.34549, "population": 24499, "alt_names": ""}, {"geoname_id": 12214080, "name": "Alsergrund", "ascii_name": "Alsergrund", "country": "AT", "lat": 48.22321, "lng": 16.35506, "population": 41645, "alt_names": ""}, {"geoname_id": 12214081, "name": "Brigittenau", "ascii_name": "Brigittenau", "country": "AT", "lat": 48.24275, "lng": 16.37551, "population": 86967, "alt_names": ""}, {"geoname_id": 3186573, "name": "Zenica", "ascii_name": "Zenica", "country": "BA", "lat": 44.20169, "lng": 17.90397, "population": 164423, "alt_names": "Zenica,Zenicja,jenicha,jenika,se nit sa,ze ni cha,zenika,zenitsa,zenitsua,znyka,znytsa,znyzh,zynyka,zynytsa,Зеница,Зениця,Զենիցա,זניצה,زنیتسا,زنیکا,زينيتسا,زینیتسا,زینیکا,ज़ेनिका,জেনিকা,ਜ਼ੇਨਿਕਾ,เซนีตซา,ზენიცა,ዜኒካ,ゼニツァ,泽尼察,제니차"}, {"geoname_id": 3187609, "name": "Visoko", "ascii_name": "Visoko", "country": "BA", "lat": 43.98889, "lng": 18.17806, "population": 17890, "alt_names": "Visokas,Visoko,bisoko,vuisoko,wei suo ke,Високо,ヴィソコ,维索科,비소코"}, {"geoname_id": 3188225, "name": "Velika Kladuša", "ascii_name": "Velika Kladusa", "country": "BA", "lat": 45.18497, "lng": 15.80579, "population": 19330, "alt_names": "Velika Kladusa,Velika Kladusha,Velika Kladuša,Velika-Kladusha,da ke la du sha,wlyka kldwsha,wlyqh qldwsh,wylyka kladwsha,Велика Кладуша,Велика-Кладуша,וליקה קלדושה,ولیکا کلدوشا,ویلیکا کلادوشا,ヴェリカ・クラドゥシャ,大克拉杜沙"}, {"geoname_id": 3188582, "name": "Tuzla", "ascii_name": "Tuzla", "country": "BA", "lat": 44.53842, "lng": 18.66709, "population": 142486, "alt_names": "Donja Tuzla,Soli,TZL,Tuzl,Tuzla,Tүzla,touzura,tu ci la,tujala,tujeulla,tuzala,tuzla,tuዝla,twzla,tzla,tzlہ,Тузла,Түзла,تزلا,تزلہ,توزلا,तुज़्ला,তুজলা,ਤੁਜ਼ਲਾ,ტუზლა,ቱዝላ,トゥズラ,图兹拉,투즐라"}, {"geoname_id": 3188893, "name": "Trebinje", "ascii_name": "Trebinje", "country": "BA", "lat": 42.71197, "lng": 18.34362, "population": 33178, "alt_names": "Trebigne,Trebin'e,Trebine,Trebinje,Trebinye,Trebinė,te lei bi nie,teulebine,tirebinije,torebinye,trebije,trebinaje,trebinje,trybynyh,Требине,Требинье,Требиње,تريبينيه,تریبینیه,ٹrybnjے,ٹریبنجے,ट्रेबिन्जे,ট্রেবিনজে,ਟ੍ਰੇਬਿੰਜੇ,ትሬቢንጄ,トレビニェ,特雷比涅,트레비네"}, {"geoname_id": 3188924, "name": "Travnik", "ascii_name": "Travnik", "country": "BA", "lat": 44.22637, "lng": 17.66583, "population": 31127, "alt_names": "Traunik,Travnik,Travnikas,te la fu ni ke,teulabeunikeu,tiraviniki,toravuniku,trabhanika,trafnyk,travanika,travnik,trawnyk,Травник,Траўнік,טראווניק,ترافنيك,تراونیک,ٹrawnk,ٹراونک,ट्रावनिक,ট্রাভনিক,ਟ੍ਰਾਵਨਿਕ,ትራቭኒክ,トラヴニク,特拉夫尼克,트라브니크"}, {"geoname_id": 3191281, "name": "Sarajevo", "ascii_name": "Sarajevo", "country": "BA", "lat": 43.84864, "lng": 18.35644, "population": 696731, "alt_names": "Bosna-Sarai,SJJ,Saarayego,Saireavo,Sairéavó,Saraeva,Saraevo,Saraevo osh,Saragebo,Saragiebo,Saragievo,Sarajeva,Sarajevas,Sarajevo,Sarajevs,Sarajevu,Sarajevó,Sarajewo,Sarajèvo,Saraxevo,Saraybosna,Sarayevo,Sarayevu,Seraium,Serayevo,Szarajevo,Szarajevó,Vrh Bosna,carayevo,sa la re wo,sai la ye fu,salayebo,saraevo,saraevuo,sarajyww,sarayavea,sarayebho,sarayevho,sarayevo,sarayewo,sarayh ww,sarayww,sarayyfw,srayyfw,srayyww,sryybw,Σαράγεβο,Σαράγιεβο,Σαραγιεβο,Сараева,Сараево,Сараево ош,Сараєво,Сарајево,Сараѥво,Սարաևո,סאראיעווא,סרייבו,ساراجیوو,ساراييفو,سارايېۋو,سارایه وو,سارایوو,سارایێڤۆ,سرائیوو,سراييفو,सारायेव्हो,সারায়েভো,ਸਾਰਾਯੇਵੋ,சாரயேவோ,സരയാവോ,ซาราเยโว,ས་ར་ཇི་བོ།,სარაევო,ሳራዬቮ,サラエヴォ,塞拉耶佛,薩拉熱窩,사라예보"}, {"geoname_id": 3192409, "name": "Prijedor", "ascii_name": "Prijedor", "country": "BA", "lat": 44.97991, "lng": 16.71401, "population": 36347, "alt_names": "Grad Prijedor,Priboj,Priedor,Priedora,Prijedor,Prijedoras,bryjydwr,peuliyedoleu,prijedara,prijedora,prizedora,pryjdwr,pryjyڈwr,pu li ye duo er,puriiedoru,Град Приједор,Прибой,Приедор,Приедора,Прієдор,بريجيدور,پریجدور,پریجیڈور,प्रिजेडोर,প্রিজেডর,ਪ੍ਰਿਜ਼ੇਡੋਰ,ፕrijedori,ፕሪጄዶር,プリイェドル,普里耶多尔,프리예도르"}, {"geoname_id": 3194828, "name": "Mostar", "ascii_name": "Mostar", "country": "BA", "lat": 43.34333, "lng": 17.80806, "population": 104518, "alt_names": "Mandetrium,Mostar,Mostara,Mostaras,Mostari,OMO,mo si ta er,mosatara,moseutaleu,mositari,mostara,mosutaru,mwstar,mwstr,Μόσταρ,Мостар,מוסטר,موستار,موسطار,मोस्तार,মোস্তার,ਮੋਸਤਾਰ,ሞስታር,モスタル,莫斯塔爾,모스타르"}, {"geoname_id": 3196079, "name": "Lukavac", "ascii_name": "Lukavac", "country": "BA", "lat": 44.54245, "lng": 18.52618, "population": 44520, "alt_names": "Lukavac,Lukavac Muslimanski,Lukavacas,Muslimanski Lukavac,lu ka wa ci,Лукавац,盧卡瓦茨"}, {"geoname_id": 3199145, "name": "Ilidža", "ascii_name": "Ilidza", "country": "BA", "lat": 43.83148, "lng": 18.30697, "population": 71277, "alt_names": "Ilide,Ilidja,Ilidza,Ilidze,Ilidzha,Ilidža,Ilidže,Iliđe,irija,yi li zha,Илиджа,Илиџа,イリジャ,伊利扎"}, {"geoname_id": 3199744, "name": "Gradačac", "ascii_name": "Gradacac", "country": "BA", "lat": 44.87851, "lng": 18.42764, "population": 15659, "alt_names": "Gradacac,Gradacacas,Gradachac,Gradačac,Gradačacas,ge la da cha ci,guradachatsu,Градачац,グラダチャツ,格拉達查茨"}, {"geoname_id": 3199779, "name": "Gračanica", "ascii_name": "Gracanica", "country": "BA", "lat": 44.70307, "lng": 18.3101, "population": 15758, "alt_names": "Gracanica,Grachanica,Gračanica,ge la cha ni cha,grachanytsa  bwsny w hrzgwyn,Грачаница,گراچانیتسا، بوسنی و هرزگوین,گراچانیسا، بوسنیا و ہرزیگووینا,格拉查尼察"}, {"geoname_id": 3200396, "name": "Goražde", "ascii_name": "Gorazde", "country": "BA", "lat": 43.66795, "lng": 18.97564, "population": 17650, "alt_names": "Gorajde,Gorazde,Gorazhda,Gorazhde,Goražde,Goraždė,ge la ri dai,golajude,gorajde,gorajude,gorazade,goraዝde,grazhdh,gwrazhڈے,gwrazhډې,jwrajdy,Горажде,جوراجدي,گراژده,گوراژڈے,گوراژډې,गोराज्डे,গোরাজ্ডে,ਗੋਰਾਜ਼ਡੇ,ጎራዝደ,ゴラジュデ,戈拉日代,고라주데"}, {"geoname_id": 3201984, "name": "Doboj", "ascii_name": "Doboj", "country": "BA", "lat": 44.73179, "lng": 18.08698, "population": 27235, "alt_names": "Doboj,Dobojus,doboi,doboja,doboji,duo bo yi,dwbwj,dwbwy,Добой,Добој,دوبوج,دوبوي,ڈwbwj,ڈوبوج,ډwbwj,ډوبوج,डोबोज,ডোবোজ,ਡੋਬੋਜ,ዶቦጅ,ドボイ,多博伊,도보이"}, {"geoname_id": 3202822, "name": "Cazin", "ascii_name": "Cazin", "country": "BA", "lat": 44.96694, "lng": 15.94306, "population": 21741, "alt_names": "Cazin,Cazinas,cha jin,tsuajin,Цазин,ツァジン,察津"}, {"geoname_id": 3203099, "name": "Bugojno", "ascii_name": "Bugojno", "country": "BA", "lat": 44.05722, "lng": 17.45083, "population": 41378, "alt_names": "Bugoinas,Bugojne,Bugojno,Bugoyno,bugoino,Бугойно,Бугојно,Բուգոյնո,ブゴイノ"}, {"geoname_id": 3203521, "name": "Brčko", "ascii_name": "Brcko", "country": "BA", "lat": 44.87162, "lng": 18.8163, "population": 38968, "alt_names": "Bercka,Brchko,Brckas,Brcko,Brczko,Breucus,Bruchko,Brçko,Brčkas,Brčko,Bërçka,beuleuchiko,biricikwe,bracako,brchkw,brkw,brtshkw,brzqw,bu er qi ke,buruchiko,Брчко,Бръчко,ברצקו,برتشكو,برچکو,برکو,ब्रचको,ব্রচকো,ਬ੍ਰਚਕੋ,ብርችኮ,ブルチコ,布尔奇科,브르치코"}, {"geoname_id": 3203653, "name": "Bosanska Krupa", "ascii_name": "Bosanska Krupa", "country": "BA", "lat": 44.8825, "lng": 16.15139, "population": 15193, "alt_names": "Bosanska Krupa,Krupa,Krupa na Uni,bo si ni ya ke lu pa,Босанска Крупа,ボサンスカ・クルパ,波斯尼亞克魯帕"}, {"geoname_id": 3204186, "name": "Bijeljina", "ascii_name": "Bijeljina", "country": "BA", "lat": 44.75874, "lng": 19.21437, "population": 37692, "alt_names": "Beline,Bielina,Bieline,Bijel'ina,Bijelina,Bijeljina,bi ye li na,bielina,biierina,bijelajina,bijeljina,bijiልjina,biyellina,bjljyna,blnh,byh lyna,byjljyna,byylynh,Биелина,Биелине,Бијельина,Бијељина,Бієліна,Բիելինա,ביילינה,بجلجینا,بلنه,بيه لينا,بیجلجینا,بیه‌لینا,بیےلینا,बिजेल्जीना,বিজেলজিনা,ਬਿਜੇਲਜੀਨਾ,ბიელინა,ቢጅልጂና,ビイェリナ,比耶利納,비옐리나"}, {"geoname_id": 3204222, "name": "Bihać", "ascii_name": "Bihac", "country": "BA", "lat": 44.81694, "lng": 15.87083, "population": 75641, "alt_names": "Bichacas,Bichačas,Bihac,Bihacium,Bihacs,Bihaç,Bihać,Bihoch,Bihács,Bikhach,Bikhak,bi ha qi,bi hach,bihaca,bihachi,bihaci,bihaka,byhach,byhʼz,bykhach,bykhatsh,Бихач,Бихаћ,Бихаќ,Біхач,ביחאץ,بيخاتش,بیخاچ,بیهاچ,بیہاج,बिहाक,বিহাক,ਬਿਹਾਚ,บีฮาช,ቢሃች,ビハチ,比哈奇,비하치"}, {"geoname_id": 3204541, "name": "Banja Luka", "ascii_name": "Banja Luka", "country": "BA", "lat": 44.77879, "lng": 17.20629, "population": 221106, "alt_names": "BNX,Bagnaluka,Bana Luka,Bania Louka,Bania Luka,Banialuca,Banja Luka,Banja Luka - Bana Luka,Banja-Luka,Banja-Lukae,BanjaLucka,Banjaluka,Banjaluko,Banya Luka,Baņa Luka,ba ni ya lu ka,ban ya luk a,ban'ya luka,banaja luka,baniya luka,banja luka,banja lwka,banya lwka,banyaluka,Μπάνια Λούκα,Баня Лука,Баня-Лукæ,Баня-Лука,Банꙗ Лоука,Бања Лука,Բանյա Լուկա,באניה לוקה,بانجا لوکا,بانيا لوكا,بانیا لوکا,बंजा लुका,बान्या लुका,বান্যা লুকা,ਬਾਨਜਾ ਲੁਕਾ,บันยาลูกา,ბანია-ლუკა,ባንያ ሉካ,バニャ・ルカ,巴尼亚卢卡,바냐루카"}, {"geoname_id": 3337476, "name": "Konjic", "ascii_name": "Konjic", "country": "BA", "lat": 43.65126, "lng": 17.96082, "population": 15950, "alt_names": "Konjic"}, {"geoname_id": 2783081, "name": "Zwijndrecht", "ascii_name": "Zwijndrecht", "country": "BE", "lat": 51.21979, "lng": 4.32664, "population": 18249, "alt_names": "Zuindracum,Zvejndrekht,Zwijndrecht,Zwyndrecht,ci wei en de lei he te,zwyyzhndrkt,Звейндрехт,زوئیژندرکت,兹韦恩德雷赫特"}, {"geoname_id": 2783089, "name": "Zwevegem", "ascii_name": "Zwevegem", "country": "BE", "lat": 50.81268, "lng": 3.33848, "population": 23358, "alt_names": "Sweveghem,Zvevegem,Zwevegem,Zwevehem,ci wei fu hai mu,zwywwzhm,Звевегем,زوئووژم,兹韦弗海姆"}, {"geoname_id": 2783175, "name": "Zottegem", "ascii_name": "Zottegem", "country": "BE", "lat": 50.86955, "lng": 3.81052, "population": 24434, "alt_names": "Sottegem,Zotegem,Zottegem,ztzhm,zuo te hai mu,Зотегем,Зоттегем,زتژم,佐特海姆"}, {"geoname_id": 2783188, "name": "Zonhoven", "ascii_name": "Zonhoven", "country": "BE", "lat": 50.99064, "lng": 5.36819, "population": 19922, "alt_names": "Zoneve,Zonhoven,Zonhovena,Zonkhoven,son ho fein,zong huo fen,zwnwwan,Зонховен,زونووان,โซนโฮเฟิน,宗霍芬"}, {"geoname_id": 2783197, "name": "Zolder", "ascii_name": "Zolder", "country": "BE", "lat": 51.02455, "lng": 5.30983, "population": 17289, "alt_names": "Heusden-Zolder (Zolder),Zolder,ゾルダー・サーキット"}, {"geoname_id": 2783274, "name": "Zemst", "ascii_name": "Zemst", "country": "BE", "lat": 50.98318, "lng": 4.46079, "population": 21096, "alt_names": "Sempst,Zemst,zamst,ze mu si te,Земст,زامست,泽姆斯特"}, {"geoname_id": 2783293, "name": "Zele", "ascii_name": "Zele", "country": "BE", "lat": 51.06566, "lng": 4.0403, "population": 20236, "alt_names": "Zele,ze lai,zl,Зеле,زل,泽莱"}, {"geoname_id": 2783308, "name": "Zedelgem", "ascii_name": "Zedelgem", "country": "BE", "lat": 51.14236, "lng": 3.1368, "population": 21968, "alt_names": "Zedel'gem,Zedelgem,Zedelghem,Zillegem,Zillehem,ze de er hai mu,zwdlzhm,Зеделгем,Зедельгем,زودلژم,泽德尔海姆"}, {"geoname_id": 2783310, "name": "Zaventem", "ascii_name": "Zaventem", "country": "BE", "lat": 50.88365, "lng": 4.47298, "population": 28188, "alt_names": "Saventhem,Zaventem,zha fen te mu,zwantm,Завентем,زوانتم,扎芬特姆"}, {"geoname_id": 2783456, "name": "Wondelgem", "ascii_name": "Wondelgem", "country": "BE", "lat": 51.08705, "lng": 3.70909, "population": 23546, "alt_names": "Wendelghem,Wondelgem"}, {"geoname_id": 2783476, "name": "Woluwe-Saint-Lambert", "ascii_name": "Woluwe-Saint-Lambert", "country": "BE", "lat": 50.84389, "lng": 4.42912, "population": 56584, "alt_names": "Sint Lambrekhts - Voljuve,Sint-Lambrechts-Woluwe,Volive Sen Lamber,Voljuve-Sen-Lamber,Woluwe-Saint-Lambert,Woluwe-Saint-Lambert - Sint-Lambrechts-Woluwe,Woluwe-Saint-Lambert/Sint-Lambrechts-Woluwe,vuoryuue=san=ranberu,wo lu wei-sheng lan bo,wollwibeusaenglangbeleu,wwlww-sn-lambr,Воливе Сен Ламбер,Волюве-Сен-Ламбер,Синт Ламбрехтс - Волюве,وولوو-سن-لامبر,ヴォリュウェ＝サン＝ランベール,沃吕韦-圣兰伯,월뤼브생랑베르"}, {"geoname_id": 2783615, "name": "Wilrijk", "ascii_name": "Wilrijk", "country": "BE", "lat": 51.16734, "lng": 4.39513, "population": 41403, "alt_names": "Antwerpen (Wilrijk),Vilrejk,Wilryck,wwylryyq,Вилрейк,ווילרייק"}, {"geoname_id": 2783632, "name": "Willebroek", "ascii_name": "Willebroek", "country": "BE", "lat": 51.06041, "lng": 4.36019, "population": 22808, "alt_names": "Vilebruk,Villebruk,Willebroeck,Willebroek,wei lei bu lu ke,wywbrwyk,Вилебрук,Виллебрук,ویوبروئک,维勒布鲁克"}, {"geoname_id": 2783759, "name": "Wevelgem", "ascii_name": "Wevelgem", "country": "BE", "lat": 50.8, "lng": 3.16667, "population": 30954, "alt_names": "Vevel'geme,Vevelgem,Wevelgem,Wevelghem,Wevelhem,wei fu er hai mu,wyflghm,Вевелгем,Вевельгеме,ويفلغم,韦弗尔海姆"}, {"geoname_id": 2783763, "name": "Wetteren", "ascii_name": "Wetteren", "country": "BE", "lat": 51.00526, "lng": 3.88341, "population": 22930, "alt_names": "Veteren,Vetteren,Wetteran,Wetteren,awytwran,wei te lun,Ветерен,Веттерен,اوئتوران,韦特伦"}, {"geoname_id": 2783801, "name": "Westerlo", "ascii_name": "Westerlo", "country": "BE", "lat": 51.09049, "lng": 4.91544, "population": 22579, "alt_names": "Vesterlas,Vesterlo,Westel,Westerlo,Westerloo,awystrlw,wei si te luo,Вестерло,اوئسترلو,韦斯特洛"}, {"geoname_id": 2783820, "name": "Wervik", "ascii_name": "Wervik", "country": "BE", "lat": 50.78069, "lng": 3.03854, "population": 17340, "alt_names": "Vervik,Viroviacum,Wervicq,Wervik,wei er fei ke,wrwyk,Вервик,Вервік,ورویک,韦尔菲克"}, {"geoname_id": 2783941, "name": "Wavre", "ascii_name": "Wavre", "country": "BE", "lat": 50.71717, "lng": 4.60138, "population": 34305, "alt_names": "Uavur,Vavr,Vavra,Vavras,Wave,Waver,Wavre,Wavria,Wåve,ZGV,uabeuleu,wa fu er,wavuru,wwr,Βαβρ,Вавр,Уавър,وور,ワーヴル,瓦夫爾,우아브르"}, {"geoname_id": 2783979, "name": "Watermael-Boitsfort", "ascii_name": "Watermael-Boitsfort", "country": "BE", "lat": 50.80154, "lng": 4.41436, "population": 25157, "alt_names": "Brussel (Watermaal-Bosvoorde),Bruxelles (Watermael-Boitsfort),Vatermal - Bosvorde,Vatermal'-Buafor,Watermaal-Boschvoorde,Watermaal-Bosvoorde,Watermael-Boitsfort,Watermael-Boitsfort - Watermaal-Bosvoorde,Watermael-Boitsfort/Watermaal-Bosvoorde,awytrmyl-bwatsfwr,wa te er ma er-bu wa fu er,wateleumalbuapoleu,waterumaru=bowaforu,Ватермал - Босворде,Ватермаль-Буафор,اوئترمئل-بوآتسفور,ワーテルマール＝ボワフォール,瓦特尔马尔-布瓦福尔,와테르말부아포르"}, {"geoname_id": 2783985, "name": "Waterloo", "ascii_name": "Waterloo", "country": "BE", "lat": 50.71469, "lng": 4.3991, "population": 29778, "alt_names": "Vaterlo,Vaterloo,Vatʻerloo,Waterlo,Waterloo,Waterloum,Waterlô,hua tie lu,oyataralu,wateruro,watrlw,wo da lao,woteollu,wwtrlw,Βατερλώ,Ватерло,Ватерлоо,Վաթեռլոո,ווטרלו,واترلو,واٹرلو، بیلجئیم,ওয়াটারলু,ワーテルロー,滑鐵盧,窩打老,워털루"}, {"geoname_id": 2784068, "name": "Waregem", "ascii_name": "Waregem", "country": "BE", "lat": 50.88898, "lng": 3.42756, "population": 35896, "alt_names": "Varegem,Varegemas,Waereghem,Waregem,Waregemi vald,Woaregem,baleheom,wa lei hai mu,warehemu,warkhm,Варегем,وارخم,ワレヘム,瓦勒海姆,바레험"}, {"geoname_id": 2784189, "name": "Walcourt", "ascii_name": "Walcourt", "country": "BE", "lat": 50.25401, "lng": 4.43796, "population": 17501, "alt_names": "Val'kur,Valkur,Walcou,Walcourt,Walcoû,wa er ku er,wlkwr,Валкур,Валькур,ولکور,瓦尔库尔"}, {"geoname_id": 2784548, "name": "Visé", "ascii_name": "Vise", "country": "BE", "lat": 50.7376, "lng": 5.69907, "population": 17054, "alt_names": "Vise,Visé,Wezet"}, {"geoname_id": 2784604, "name": "Vilvoorde", "ascii_name": "Vilvoorde", "country": "BE", "lat": 50.92814, "lng": 4.42938, "population": 36955, "alt_names": "Vilvoorde,Vilvorde,Vilvordė,fei er fu er de,wylwwrd,Вилворде,Вілворде,ویلوورد,菲尔福尔德"}, {"geoname_id": 2784821, "name": "Verviers", "ascii_name": "Verviers", "country": "BE", "lat": 50.58907, "lng": 5.86241, "population": 52824, "alt_names": "Verv'e,Verve,Vervi,Vervia,Vervie,Verviers,Vervje,Vervjė,Vervî,beleubie,vervie,vueruvuie,wei er wei ye,wrwyh,Вервие,Вервье,Вервє,Вервје,ورویه,ვერვიე,ヴェルヴィエ,韦尔维耶,베르비에"}, {"geoname_id": 2785123, "name": "Uccle", "ascii_name": "Uccle", "country": "BE", "lat": 50.80225, "lng": 4.33943, "population": 82929, "alt_names": "Brussel (Ukkel),Bruxelles (Uccle),Jukel,Uccla,Uccle,Uccle-Ukkel,Uccle/Ukkel,Ukel,Ukkel,awkl,ikuru,wikeul,xu kl,yu ke lei,Укел,Уккел,Юкел,اوکل,อุกล์,イクル,于克勒,위클"}, {"geoname_id": 2785141, "name": "Turnhout", "ascii_name": "Turnhout", "country": "BE", "lat": 51.32254, "lng": 4.94471, "population": 44000, "alt_names": "T'ornkhaut,Tjurnkhaut,Turnaut,Turnholtum,Turnhout,Turnkhout,di lun hao te,tourunhauto,twileunhauteu,twrnhawt,twrnw,Турнаут,Турнхоут,Тьорнхаут,Тюрнхаут,تورنهاوت,تورنو,トゥルンハウト,蒂伦豪特,튀른하우트"}, {"geoname_id": 2785169, "name": "Tubize", "ascii_name": "Tubize", "country": "BE", "lat": 50.69059, "lng": 4.2009, "population": 18000, "alt_names": "Tiubizas,Tjubiz,Tubeke,Tubize,di bi ci,twbyz,twibijeu,Тюбиз,توبيز,توبیز,蒂比兹,튀비즈"}, {"geoname_id": 2785341, "name": "Tournai", "ascii_name": "Tournai", "country": "BE", "lat": 50.60715, "lng": 3.38932, "population": 69554, "alt_names": "Doornik,Doornyk,Tornai,Tournai,Tournay,Turnacum,Turne,Turnė,ZGQ,tourune,tu er nai,tuleune,twrnay,twrnh,Τουρναί,Турне,טורנה,تورناي,تورنه,ตูร์แน,トゥルネー,图尔奈,투르네"}, {"geoname_id": 2785364, "name": "Torhout", "ascii_name": "Torhout", "country": "BE", "lat": 51.0656, "lng": 3.10085, "population": 18933, "alt_names": "Thouront,Thourout,Toeroet,Torhout,Torkhaut,Torkhout,Turholt,trw,tuo er hao te,Торхаут,Торхоут,ترو,托尔豪特"}, {"geoname_id": 2785389, "name": "Tongeren", "ascii_name": "Tongeren", "country": "BE", "lat": 50.78054, "lng": 5.46484, "population": 29816, "alt_names": "Atuatuca Tungrorum,Tongere,Tongerehn,Tongeren,Tongerenas,Tongres,Toungern,Tungro,Tóngere,tnzhran,tong e lun,tong-eleon,tongngexrein,tonheren,Тонгерен,Тонгерэн,تنژران,โตงเงอเริน,トンヘレン,通厄伦,통에런"}, {"geoname_id": 2785470, "name": "Tienen", "ascii_name": "Tienen", "country": "BE", "lat": 50.80745, "lng": 4.9378, "population": 31743, "alt_names": "Thenae,Thienen,Tienen,Tijnen,Tinen,Tirlemont,di nen,tyynan,Тийнен,Тинен,تیئنان,蒂嫩"}, {"geoname_id": 2785476, "name": "Tielt", "ascii_name": "Tielt", "country": "BE", "lat": 50.99931, "lng": 3.32707, "population": 19299, "alt_names": "Thielt,Tielt,Tijlt,Tilt,di er te,tylt,tyylt,Тийлт,Тілт,تيلت,تیئلت,蒂尔特"}, {"geoname_id": 2785612, "name": "Tessenderlo", "ascii_name": "Tessenderlo", "country": "BE", "lat": 51.06513, "lng": 5.08856, "population": 16574, "alt_names": "Loei,Tesenderlo,Tessenderlo,Tessenderloo,tai sen de luo,teseondeleullo,theis seinde xrlo,tsandrlw,Тесендерло,تساندرلو,เทิสเซินเดอร์โล,泰森德洛,테선데를로"}, {"geoname_id": 2785622, "name": "Tervuren", "ascii_name": "Tervuren", "country": "BE", "lat": 50.82372, "lng": 4.51418, "population": 20623, "alt_names": "Terv'oren,Tervjuren,Tervueren,Tervuren,te er fei lun,trwwran,Тервьорен,Тервюрен,ترووران,特尔菲伦"}, {"geoname_id": 2785778, "name": "Temse", "ascii_name": "Temse", "country": "BE", "lat": 51.12794, "lng": 4.21372, "population": 26054, "alt_names": "Tamise,Tamsch,Tamse,Temsche,Temse,tams,te mu sai,Темсе,تامس,特姆塞"}, {"geoname_id": 2786087, "name": "Stekene", "ascii_name": "Stekene", "country": "BE", "lat": 51.2099, "lng": 4.03651, "population": 16989, "alt_names": "Stekene"}, {"geoname_id": 2786229, "name": "Stabroek", "ascii_name": "Stabroek", "country": "BE", "lat": 51.33189, "lng": 4.37127, "population": 17294, "alt_names": "Stabroeck,Stabroek"}, {"geoname_id": 2786344, "name": "Soumagne", "ascii_name": "Soumagne", "country": "BE", "lat": 50.61385, "lng": 5.74679, "population": 15237, "alt_names": "Soumagne,Soûmagne,Suman,Suman',su ma nie,swmny,Суман,Сумань,سومنی,苏马涅"}, {"geoname_id": 2786420, "name": "Soignies", "ascii_name": "Soignies", "country": "BE", "lat": 50.57904, "lng": 4.07129, "population": 24869, "alt_names": "Soani,Sougniye,Suan'e,Suan'i,Zinnik,swynyh,Соани,Суанье,Суаньи,Суаньї,سوئنیه"}, {"geoname_id": 2786545, "name": "Sint-Truiden", "ascii_name": "Sint-Truiden", "country": "BE", "lat": 50.81679, "lng": 5.18647, "population": 37859, "alt_names": "Oppidum Sancti Trudonis,Saint-Trond,Sankt-Trond,Sent-Trueden,Sent-Trüden,Sint Treidenas,Sint Treidens,Sint Trojden,Sint Truijen,Sint-Trejden,Sint-Trjojden,Sint-Trjujden,Sint-Trond,Sint-Truiden,Sint-Truudn,Sintruin,Sinttreidena,sant trwnd,sheng te lei deng,shinto=toroiden,sint-tery dein,sinteuteulawideon,snt trwydn,Санкт-Тронд,Синт Тройден,Синт Тројден,Синт-Трюйден,Синт-Трёйден,Сінт-Трейден,سانت تروند,سنت ترویدن,ซินต์-เตรยเดิน,シント＝トロイデン,圣特雷登,신트트라위던"}, {"geoname_id": 2786559, "name": "Sint-Pieters-Leeuw", "ascii_name": "Sint-Pieters-Leeuw", "country": "BE", "lat": 50.77926, "lng": 4.24355, "population": 30446, "alt_names": "Ieus,Leeuw-Saint-Pierre,Sin Piters Leuv,Sint Pijters Leu,Sint-Pieters-Leeuw,Sint-Piters-Leuv,sheng bi de si-lai wu,sn-pywth-lyw,Син Питерс Леув,Синт Пийтерс Леу,Синт-Питерс-Леув,سن-پیوته-لئو,圣彼得斯-莱乌"}, {"geoname_id": 2786578, "name": "Sint-Niklaas", "ascii_name": "Sint-Niklaas", "country": "BE", "lat": 51.16509, "lng": 4.1437, "population": 69010, "alt_names": "Saint-Nicolas,Sint-Niklaas,Sint-Niklas,Синт-Никлас"}, {"geoname_id": 2786634, "name": "Sint-Kruis", "ascii_name": "Sint-Kruis", "country": "BE", "lat": 51.21399, "lng": 3.24949, "population": 16000, "alt_names": "Sainte-Croix,Sint-Kruis"}, {"geoname_id": 2786641, "name": "Sint-Katelijne-Waver", "ascii_name": "Sint-Katelijne-Waver", "country": "BE", "lat": 51.06691, "lng": 4.53469, "population": 19487, "alt_names": "Sint Katelejne - Vaver,Sint Katelijne Waver,Sint-Katelijne-Waver,Sint-Kathelijne-Waver,Wavre-Sainte-Catherine,sheng ka te lai na-wa fu er,sn-ktwlyzhnwywh,Синт Кателейне - Вавер,سن-کتولیژنوئوه,圣卡特莱娜-瓦弗尔"}, {"geoname_id": 2786694, "name": "Sint-Gillis-Waas", "ascii_name": "Sint-Gillis-Waas", "country": "BE", "lat": 51.21914, "lng": 4.12374, "population": 17658, "alt_names": "Saint-Gilles-Waes,Saint-Gillis-Waas,Sint-Gillis-Waas"}, {"geoname_id": 2786700, "name": "Sint-Genesius-Rode", "ascii_name": "Sint-Genesius-Rode", "country": "BE", "lat": 50.74645, "lng": 4.35754, "population": 17990, "alt_names": "Rhode-Saint-Genese,Rhode-Saint-Genèse,Sint-Genesius-Rode"}, {"geoname_id": 2786739, "name": "Sint-Andries", "ascii_name": "Sint-Andries", "country": "BE", "lat": 51.19696, "lng": 3.17891, "population": 19336, "alt_names": "Saint-Andre,Saint-André,Sint-Andries"}, {"geoname_id": 2786743, "name": "Sint-Amandsberg", "ascii_name": "Sint-Amandsberg", "country": "BE", "lat": 51.05947, "lng": 3.74943, "population": 32115, "alt_names": "Mont-Saint Amand,Mont-Saint-Amand,Sint-Amandsberg,sheng a man ci bei he,sn amandsbrg,سن آماندسبرگ,圣阿曼兹贝赫"}, {"geoname_id": 2786824, "name": "Seraing", "ascii_name": "Seraing", "country": "BE", "lat": 50.58362, "lng": 5.50115, "population": 60737, "alt_names": "Seraing,Sere,Seren,Serenas,Serranius,Serè,se lan,selaeng,seran,sex ræng,srn,Серен,سرن,เซอแร็ง,セラン,瑟兰,세랭"}, {"geoname_id": 2786963, "name": "Schoten", "ascii_name": "Schoten", "country": "BE", "lat": 51.25251, "lng": 4.50268, "population": 33622, "alt_names": "Schooten,Schoten,Skhoten,shwtan,si huo teng,Схотен,شوتان,斯霍滕"}, {"geoname_id": 2787048, "name": "Schilde", "ascii_name": "Schilde", "country": "BE", "lat": 51.24107, "lng": 4.58336, "population": 20373, "alt_names": "Schilde,Shil'de,Шильде"}, {"geoname_id": 2787149, "name": "Schaerbeek", "ascii_name": "Schaerbeek", "country": "BE", "lat": 50.86935, "lng": 4.37737, "population": 132761, "alt_names": "Sarbeko,Scarbeca,Schaarbeek,Schaerbeek,Schaerbeek - Schaarbeek,Schaerbeek-Schaarbeek,Schaerbeek/Schaarbeek,Skharbek,seuhaleubeikeu,sharbyk,shyrbyk,si ha er bei ke,ska rbek,sukarubeku,Ŝarbeko,Схарбек,شئربئک,شاربیک,สการ์เบก,スカールベーク,斯哈尔贝克,스하르베이크"}, {"geoname_id": 2787356, "name": "Saint-Nicolas", "ascii_name": "Saint-Nicolas", "country": "BE", "lat": 50.62837, "lng": 5.53243, "population": 22586, "alt_names": "Saint-Nicolas,Sankt-Nikola,Sint-Niklaas,Санкт-Никола"}, {"geoname_id": 2787387, "name": "Saint-Josse-ten-Noode", "ascii_name": "Saint-Josse-ten-Noode", "country": "BE", "lat": 50.8538, "lng": 4.37282, "population": 27366, "alt_names": "Brussel (Sint-Joost-ten-Node),Bruxelles (Saint-Josse-ten-Noode),Nauda Sancti Iudoci,Saint-Josse-ten-Noode,Saint-Josse-ten-Noode - Sint-Joost-ten-Node,Saint-Josse-ten-Noode/Sint-Joost-ten-Node,Sen-Zhoss-ten-Node,Sint Jost ten Node,Sint-Joost-ten-Node,saengjoseutangnodeu,san=josu=tan=nodo,sheng ruo si-teng-nuo de,sn-zhws-tan-nwd,Сен-Жосс-тен-Ноде,Синт Йост тен Ноде,سن-ژوس-تان-نود,سینٹ-جوسسے-تین-نووڈے,サン＝ジョス＝タン＝ノード,圣若斯-滕-诺德,생조스탕노드"}, {"geoname_id": 2787413, "name": "Saint-Gilles", "ascii_name": "Saint-Gilles", "country": "BE", "lat": 50.82763, "lng": 4.34389, "population": 50221, "alt_names": "Saint-Gilles,Saint-Gilles - Sint-Gillis,Saint-Gilles/Sint-Gillis,Sen Zhil,Sen-Zhil',Sint Gilis,Sint-Djile-dile-Brussele,Sint-Djîle-dilé-Brussele,Sint-Gillis,Sint-Gillis-Obbrussel,saengjil,san=jiru,sheng ji er,sn-zhyl,Сен Жил,Сен-Жиль,Сен-Жіль,Синт Гилис,سن-ژیل,سینٹ-گلیس، بیلجیم,サン＝ジル,圣吉尔,생질"}, {"geoname_id": 2787416, "name": "Saint-Ghislain", "ascii_name": "Saint-Ghislain", "country": "BE", "lat": 50.44816, "lng": 3.81886, "population": 22500, "alt_names": "Sankt-Gilene,Sen Gislen,Sen-Gilen,sheng ji si lan,sn-gyzln,Санкт-Гилене,Сен Гислен,Сен-Гилен,سن-گیزلن,سینٹ-غصلیں,聖吉斯蘭"}, {"geoname_id": 2787662, "name": "Rotselaar", "ascii_name": "Rotselaar", "country": "BE", "lat": 50.95302, "lng": 4.71665, "population": 15007, "alt_names": "Rotselaar,Rotselaer,Rotselar,luo ce la er,rwtswlr,Ротселар,روتسولر,罗策拉尔"}, {"geoname_id": 2787769, "name": "Ronse", "ascii_name": "Ronse", "country": "BE", "lat": 50.74574, "lng": 3.6005, "population": 24204, "alt_names": "Renaix,Rinais,Ronse,Rotnacum,long sai,rnz,Ронсе,رنز,龙塞"}, {"geoname_id": 2787889, "name": "Roeselare", "ascii_name": "Roeselare", "country": "BE", "lat": 50.94653, "lng": 3.12269, "population": 56016, "alt_names": "Roeselare,Roeselare vald,Roeselave,Roeseloare,Roselare,Roulers,Rouselare,Ruselare,Ruselarė,Russelaers,lu se la lei,lusellale,rsl,ruserare,rwslarh,Руселаре,روسلاره,ルーセラーレ,鲁瑟拉勒,루셀라레"}, {"geoname_id": 2787989, "name": "Rixensart", "ascii_name": "Rixensart", "country": "BE", "lat": 50.71229, "lng": 4.52529, "population": 21616, "alt_names": "Ricsinsat,Ricsinsåt,Riksansar,Riksensart,Rixensart,li ke sang sa er,ryksansr,Риксансар,Риксенсарт,ریکسانسر,里克桑萨尔"}, {"geoname_id": 2788088, "name": "Riemst", "ascii_name": "Riemst", "country": "BE", "lat": 50.80995, "lng": 5.60131, "population": 15809, "alt_names": "Riempst,Riemst"}, {"geoname_id": 2788348, "name": "Ranst", "ascii_name": "Ranst", "country": "BE", "lat": 51.18983, "lng": 4.56533, "population": 17405, "alt_names": "Ranst"}, {"geoname_id": 2788499, "name": "Quaregnon", "ascii_name": "Quaregnon", "country": "BE", "lat": 50.44067, "lng": 3.8653, "population": 18491, "alt_names": "Cargnon,Couargnon,Karen'on,krwnywn,Кареньон,کرونیون"}, {"geoname_id": 2788506, "name": "Puurs", "ascii_name": "Puurs", "country": "BE", "lat": 51.07409, "lng": 4.28844, "population": 15944, "alt_names": "Pjurs,Puers,Puurs,pi er si,pwr,Пюрс,پور,皮尔斯"}, {"geoname_id": 2788521, "name": "Putte", "ascii_name": "Putte", "country": "BE", "lat": 51.05337, "lng": 4.63263, "population": 15276, "alt_names": "Putte"}, {"geoname_id": 2788726, "name": "Poperinge", "ascii_name": "Poperinge", "country": "BE", "lat": 50.85386, "lng": 2.72659, "population": 19537, "alt_names": "Poperienge,Poperinge,Poperinghe,bo po ling e,pprnzh,Поперинге,پپرنژ,波珀灵厄"}, {"geoname_id": 2788765, "name": "Pont-à-Celles", "ascii_name": "Pont-a-Celles", "country": "BE", "lat": 50.50518, "lng": 4.36887, "population": 15909, "alt_names": "Pont a Sel,Pont-a-Sel',pwn-a-sl,Понт а Сел,Понт-а-Сель,پون-ا-سل"}, {"geoname_id": 2789162, "name": "Péruwelz", "ascii_name": "Peruwelz", "country": "BE", "lat": 50.50819, "lng": 3.59373, "population": 16647, "alt_names": "Perjuvel'z,Perjuvelz,Perwe-e-Hinnot,Perwé-e-Hinnot,Pierwe,Piérwé,prwwlz,Перювелз,Перювельз,پروولز"}, {"geoname_id": 2789232, "name": "Peer", "ascii_name": "Peer", "country": "BE", "lat": 51.1303, "lng": 5.45952, "population": 15551, "alt_names": "Peer"}, {"geoname_id": 2789413, "name": "Overijse", "ascii_name": "Overijse", "country": "BE", "lat": 50.77436, "lng": 4.53461, "population": 23486, "alt_names": "Overejse,Overijase,Overijsche,Overijse,Overyssche,ao gang lai ze,awryzhz,Оверейсе,Оверийсе,اوریژز,奥纲赖泽"}, {"geoname_id": 2789471, "name": "Oupeye", "ascii_name": "Oupeye", "country": "BE", "lat": 50.71184, "lng": 5.6468, "population": 23594, "alt_names": "Oupeye,Oûpêye,Upe,Upej,awpyy,wu pei,Упе,Упей,اوپئی,乌佩"}, {"geoname_id": 2789529, "name": "Oudenaarde", "ascii_name": "Oudenaarde", "country": "BE", "lat": 50.85168, "lng": 3.60891, "population": 31866, "alt_names": "Aldenarda,Audenaarde,Audenarde,Ontenarnt,Oudenaarde,Oudenaerde,Oudenoarde,ao de na er de,audenaleudeo,audenarude,awdnrd,Οντενάρντ,Ауденарде,Оуденаарде,اودنرد,アウデナールデ,奥德纳尔德,아우데나르더"}, {"geoname_id": 2789751, "name": "Oostkamp", "ascii_name": "Oostkamp", "country": "BE", "lat": 51.15432, "lng": 3.23128, "population": 21489, "alt_names": "Oostcamp,Oostkamp,Ostkamp,Oôstkamp,ao si te kan pu,awztkam,Ôostkamp,Осткамп,اوزتکام,奥斯特坎普"}, {"geoname_id": 2789786, "name": "Ostend", "ascii_name": "Ostend", "country": "BE", "lat": 51.21551, "lng": 2.927, "population": 69011, "alt_names": "OST,Oostende,Oostenn,Ostend,Ostenda,Ostende,Ostendo,Ostendė,ao si teng de,astent,awstndh,oseutendeo,osutende,Οστένδη,Остенде,אוסטנדה,اوستنده,ஆஸ்டெண்ட்,オーステンデ,奥斯滕德,오스텐더"}, {"geoname_id": 2790101, "name": "Nivelles", "ascii_name": "Nivelles", "country": "BE", "lat": 50.59833, "lng": 4.32848, "population": 24149, "alt_names": "Nijvel,Nivel,Nivel',Nivele,Nivelles,ni wei er,nywl,Нивел,Нивель,Нівель,نیول,尼韦尔"}, {"geoname_id": 2790114, "name": "Ninove", "ascii_name": "Ninove", "country": "BE", "lat": 50.82776, "lng": 4.02657, "population": 34795, "alt_names": "Ninove,Outer,ni nuo fu,nynw,Нинове,نینو,尼诺弗"}, {"geoname_id": 2790135, "name": "Nijlen", "ascii_name": "Nijlen", "country": "BE", "lat": 51.16096, "lng": 4.67008, "population": 20792, "alt_names": "Nijlen,Nylen"}, {"geoname_id": 2790357, "name": "Neerpelt", "ascii_name": "Neerpelt", "country": "BE", "lat": 51.22807, "lng": 5.4427, "population": 16122, "alt_names": "Neerpelt"}, {"geoname_id": 2790471, "name": "Namur", "ascii_name": "Namur", "country": "BE", "lat": 50.4669, "lng": 4.86746, "population": 110939, "alt_names": "Name,Namen,Nameur,Namir,Namira,Namiuras,Namiūras,Namjur,Namouer,Namuer,Namur,Namurcum,Namuro,Namyr,Namyur,Namür,Namīra,QNM,na mu er,namu r,namura,namwileu,namwr,namyuru,nmwr  blzhyk,Ναμύρ,Намир,Намур,Намюр,Նամյուր,נאמור,نامور,نمور، بلژیک,नामूर,নামুর,ਨਾਮੂਰ,นามูร์,ናሙር,ナミュール,那慕爾,나뮈르"}, {"geoname_id": 2790595, "name": "Mouscron", "ascii_name": "Mouscron", "country": "BE", "lat": 50.74497, "lng": 3.20639, "population": 52069, "alt_names": "MWW,Moeschroen,Moeschroên,Moeskroen,Moucron,Mouscron,Mukronas,Musera,Muskron,Muskrono,museukeulong,musukuron,mwzkrwn,Мускрон,موزکرون,ムスクロン,무스크롱"}, {"geoname_id": 2790676, "name": "Mortsel", "ascii_name": "Mortsel", "country": "BE", "lat": 51.16697, "lng": 4.45127, "population": 24525, "alt_names": "Mortensella,Mortsel,mo ce er,mrtzl,Мортсел,مرتزل,莫策尔"}, {"geoname_id": 2790697, "name": "Morlanwelz-Mariemont", "ascii_name": "Morlanwelz-Mariemont", "country": "BE", "lat": 50.45502, "lng": 4.24519, "population": 18233, "alt_names": "Morlanwelz,Morlanwelz-Mariemont"}, {"geoname_id": 2790796, "name": "Montignies-sur-Sambre", "ascii_name": "Montignies-sur-Sambre", "country": "BE", "lat": 50.41081, "lng": 4.49109, "population": 18765, "alt_names": "Charleroi (Montignies-sur-Sambre)"}, {"geoname_id": 2790869, "name": "Mons", "ascii_name": "Mons", "country": "BE", "lat": 50.45413, "lng": 3.95229, "population": 95299, "alt_names": "Berge,Bergen,Bergn,Mon,Mons,Monsa,Monsas,Mont,Montes,mamsa,meng si,mngs,mongseu,monsu,mwn,mwns,Μονς,Монс,Մոնս,מונס,مون,مونس,माँस,มงส์,モンス,蒙斯,몽스"}, {"geoname_id": 2791018, "name": "Molenbeek-Saint-Jean", "ascii_name": "Molenbeek-Saint-Jean", "country": "BE", "lat": 50.8499, "lng": 4.31248, "population": 97037, "alt_names": "Brussel (Sint-Jans-Molenbeek),Bruxelles (Molenbeek-Saint-Jean),Molenbeek-Saint-Jean,Molenbeek-Saint-Jean - Sint-Jans-Molenbeek,Molenbeek-Saint-Jean/Sint-Jans-Molenbeek,Sint-Jans-Molenbeek"}, {"geoname_id": 2791067, "name": "Mol", "ascii_name": "Mol", "country": "BE", "lat": 51.19188, "lng": 5.11662, "population": 32659, "alt_names": "Mol,Moli vald,Moll,mo er,mol,mwl,mwl  bljyka,Мол,مول,مول، بلجيكا,莫尔,몰"}, {"geoname_id": 2791194, "name": "Middelkerke", "ascii_name": "Middelkerke", "country": "BE", "lat": 51.18532, "lng": 2.82077, "population": 17789, "alt_names": "Middelkerke,Middelkerke Bains,Middelkerke-Baden,Midelkerke,mi de er ke er ke,mydlkrk,Миделкерке,میدلکرک,米德尔克尔克"}, {"geoname_id": 2791301, "name": "Merksem", "ascii_name": "Merksem", "country": "BE", "lat": 51.24623, "lng": 4.44903, "population": 44435, "alt_names": "Antwerpen (Merksem),Merksem,Merxem,mei ke sang,mei ke se mu,merukusemu,mrksym,mrqsm,Мерксем,Մերքսեմ,מרקסם,مركسيم,مرک‌سام,メルクセム,梅克桑,梅克瑟姆"}, {"geoname_id": 2791315, "name": "Merelbeke", "ascii_name": "Merelbeke", "country": "BE", "lat": 50.99447, "lng": 3.74621, "population": 16684, "alt_names": "Meirelbeke,Merelbeke,mei lei er bei ke,mwrlbwk,Мерелбеке,مورلبوک,梅勒尔贝克"}, {"geoname_id": 2791343, "name": "Menen", "ascii_name": "Menen", "country": "BE", "lat": 50.79722, "lng": 3.12245, "population": 31916, "alt_names": "Meenen,Meenn,Menen,Menin,Mjeenn,Mêenn,mei nen,mnn,Менен,منن,梅嫩"}, {"geoname_id": 2791424, "name": "Meise", "ascii_name": "Meise", "country": "BE", "lat": 50.93934, "lng": 4.32655, "population": 18497, "alt_names": "Meise,Mejse,Meysse,mai ze,mz,Мейсе,مز,迈泽"}, {"geoname_id": 2791534, "name": "Mechelen-aan-de-Maas", "ascii_name": "Mechelen-aan-de-Maas", "country": "BE", "lat": 50.96589, "lng": 5.69144, "population": 15374, "alt_names": "Maasmechelen (Mechelen-aan-de-Maas),Mechelen,Mechelen-aan-Maas"}, {"geoname_id": 2791537, "name": "Mechelen", "ascii_name": "Mechelen", "country": "BE", "lat": 51.02574, "lng": 4.47762, "population": 77530, "alt_names": "Malinas,Malines,Mechele,Mechelen,Mechelenas,Mecheln,Mechlinia,Mehleno,Mekhelen,Meĥleno,ZGP,me khexlein,mehellen,meheren,mei he lun,mkln,mshlan,Мехелен,מכלן,مشلان,เมเคอเลิน,メヘレン,梅赫伦,메헬렌"}, {"geoname_id": 2791700, "name": "Mariakerke", "ascii_name": "Mariakerke", "country": "BE", "lat": 51.07476, "lng": 3.68289, "population": 17062, "alt_names": "Mariakerke"}, {"geoname_id": 2791726, "name": "Marcinelle", "ascii_name": "Marcinelle", "country": "BE", "lat": 50.39216, "lng": 4.44388, "population": 23696, "alt_names": "Charleroi (Marcinelle),Marcinele,Mårcinele"}, {"geoname_id": 2791735, "name": "Marchienne-au-Pont", "ascii_name": "Marchienne-au-Pont", "country": "BE", "lat": 50.40573, "lng": 4.3953, "population": 15154, "alt_names": "Charleroi (Marchienne-au-Pont),Marciene,Mårciene"}, {"geoname_id": 2791744, "name": "Marche-en-Famenne", "ascii_name": "Marche-en-Famenne", "country": "BE", "lat": 50.22678, "lng": 5.34416, "population": 16856, "alt_names": "Marca in Falmana,Marche,Marsh an Famen,Marsh-an-Famen,Matche-el-Famene,Måtche-el-Fåmene,fa mei en de qu ma er shen,maleusyuangpamen,marushu=an=famen'nu,Марш ан Фамен,Марш-ан-Фамен,مرش‌آن‌فمن,マルシュ＝アン＝ファメンヌ,法梅恩地区马尔什,마르슈앙파멘"}, {"geoname_id": 2791814, "name": "Manage", "ascii_name": "Manage", "country": "BE", "lat": 50.50312, "lng": 4.23589, "population": 22196, "alt_names": "Manadje,Manage,Manazh,mnzh,Манаж,منژ"}, {"geoname_id": 2791857, "name": "Maldegem", "ascii_name": "Maldegem", "country": "BE", "lat": 51.20737, "lng": 3.44511, "population": 22092, "alt_names": "Mal'degem,Maldegem,Moaldegem,ma er de hai mu,mldwzhm,Малдегем,Мальдегем,ملدوژم,马尔德海姆"}, {"geoname_id": 2791961, "name": "Maasmechelen", "ascii_name": "Maasmechelen", "country": "BE", "lat": 50.96545, "lng": 5.69452, "population": 36251, "alt_names": "Maasmechelen,Maasmekhelen,Maasmekhelene,Masmekhelen,Massmechelen,Mechele,ma si mei he lun,mas me khexlein,masmykhylyn,masumeheren,myamshlan,Маасмехелен,Маасмехелене,Масмехелен,مئامشلان,ماسميخيلين,มาสเมเคอเลิน,マースメヘレン,马斯梅赫伦"}, {"geoname_id": 2791964, "name": "Maaseik", "ascii_name": "Maaseik", "country": "BE", "lat": 51.09802, "lng": 5.78379, "population": 25201, "alt_names": "Maaseik,Maasejk,Maeseyck,Mezeik,ma sai ke,ma sik,masaiku,masayk,maseikeu,mazk,Маасейк,مازک,ماسايك,มาไซก์,マーサイク,马塞克,마세이크"}, {"geoname_id": 2792073, "name": "Louvain-la-Neuve", "ascii_name": "Louvain-la-Neuve", "country": "BE", "lat": 50.66829, "lng": 4.61443, "population": 29521, "alt_names": "Li Nou Loven,Li Noû Lovén,Louvain-la-Neuve,Luven-la-Nev,Nova Lovan,Novum Lovanium,Nová Lovaň,Ottignies-Louvain-la-Neuve (Louvain-la-Neuve),lwfan la nwf,lwwn hhdsh,lwwn lnww,ruvuan=ra=nuvu,xin lu wen,Лувен-ла-Нев,לוון החדשה,لوفان لا نوف,لوون لنوو,ルーヴァン＝ラ＝ヌーヴ,新鲁汶"}, {"geoname_id": 2792179, "name": "Lommel", "ascii_name": "Lommel", "country": "BE", "lat": 51.23074, "lng": 5.31349, "population": 31993, "alt_names": "Lomel,Lomelis,Lommel,lml,lom meil,luo mo er,lwml,Ломел,Ломмел,لمل,لومل,โลมเมิล,洛默尔"}, {"geoname_id": 2792196, "name": "Lokeren", "ascii_name": "Lokeren", "country": "BE", "lat": 51.10364, "lng": 3.99339, "population": 41438, "alt_names": "Lokeren,Lokerenas,luo ke lun,lwkrn,Локерен,لوکرن,洛克伦"}, {"geoname_id": 2792235, "name": "Lochristi", "ascii_name": "Lochristi", "country": "BE", "lat": 51.09644, "lng": 3.83194, "population": 19696, "alt_names": "Lochristi,Lokhristi,Loochristi,Loochristy,luo ke li si di,lwkrysty,Лохристи,لوکریستی,洛克里斯蒂"}, {"geoname_id": 2792360, "name": "Lille", "ascii_name": "Lille", "country": "BE", "lat": 51.24197, "lng": 4.82313, "population": 15466, "alt_names": "Lille,Lille  Antwerpen  Belgie,Lille  Antwerpen  België"}, {"geoname_id": 2792397, "name": "Lier", "ascii_name": "Lier", "country": "BE", "lat": 51.13128, "lng": 4.57041, "population": 33272, "alt_names": "L'er,Lier,Lierre,Lijr,Lir,Lyras,li er,lileu,lyr,riru,Лийр,Лир,Льер,Лір,لیر,リール,利尔,리르"}, {"geoname_id": 2792413, "name": "Liège", "ascii_name": "Liege", "country": "BE", "lat": 50.63373, "lng": 5.56749, "population": 195278, "alt_names": "L'ezh,LGG,Leck,Leodic,Leodicum,Leodium,Lidje,Liege,Liegi,Liego,Lieja,Liex,Liez,Liezh,Lieĝo,Lige,Lijezh,Liège,Lièja,Ljez,Ljeza,Ljezas,Ljež,Lježas,Ljēža,Luettich,Luik,Luttich,Lutych,Luuk,Léck,Lüttich,Lēodic,Suguru,Sùguru,lie ri,lieju,liezhi,lija,lyj,lyyj,lyyz,lyzh,rieju,Λιέγη,Лиеж,Лијеж,Льеж,Льєж,Լիեժ,לייז,ליעזש,لييج,لیج,لیژ,लीज,ลีแยฌ,လိဂျမြို့,ლიეჟი,リエージュ,列日,리에주"}, {"geoname_id": 2792482, "name": "Leuven", "ascii_name": "Leuven", "country": "BE", "lat": 50.87959, "lng": 4.70093, "population": 101032, "alt_names": "L'oven,Leouben,Leuve,Leuven,Ljoven,Loewen,Louvain,Lovaina,Lovan,Lovanio,Lovanium,Lovaň,Loveno,Luven,Löwen,ZGK,lu wen,revuen,ruvuen,Λέουβεν,Лувен,Льовен,Лёвен,ルーヴェン,レーヴェン,鲁汶"}, {"geoname_id": 2792567, "name": "Lessines", "ascii_name": "Lessines", "country": "BE", "lat": 50.71104, "lng": 3.83579, "population": 17687, "alt_names": "Lesin,Lessen,Lessin,Lessines,lai xi en,lsyn,Лесин,Лессин,لسین,莱西恩"}, {"geoname_id": 2793077, "name": "Lede", "ascii_name": "Lede", "country": "BE", "lat": 50.96626, "lng": 3.98594, "population": 16813, "alt_names": "Lede"}, {"geoname_id": 2793144, "name": "Lebbeke", "ascii_name": "Lebbeke", "country": "BE", "lat": 51.00464, "lng": 4.13457, "population": 17372, "alt_names": "Lebbeke"}, {"geoname_id": 2793446, "name": "Lanaken", "ascii_name": "Lanaken", "country": "BE", "lat": 50.89318, "lng": 5.6468, "population": 24771, "alt_names": "Lanaeken,Lanaken"}, {"geoname_id": 2793508, "name": "La Louvière", "ascii_name": "La Louviere", "country": "BE", "lat": 50.48657, "lng": 4.18785, "population": 76668, "alt_names": "El Lovire,La Louviere,La Louvière,La Luvjer,La Luvjeras,La-Luv'er,Louvierre,Luparia,Luvier,la lu wei ye er,la lwwyr,lalubieleu,Ла Лувјер,Ла-Лувьер,Лувиер,لا لوویر,ラ・ルヴィエール,拉卢维耶尔,라루비에르"}, {"geoname_id": 2794055, "name": "Kortrijk", "ascii_name": "Kortrijk", "country": "BE", "lat": 50.82803, "lng": 3.26487, "population": 73879, "alt_names": "Contrai,Cortoriacum,Cortrique,Courtrai,KJK,Kortrajk,Kortrehjk,Kortreika,Kortreikas,Kortrejk,Kortrejko,Kortrijk,Kortrik,Kortryk,ke te lai ke,khxrth rikh,koleuteuleikeu,kortrejk,korutoreiku,kwrtryk,qwrtryyq,Кортрајк,Кортрейк,Кортрэйк,קורטרייק,کورتریک,คอร์ทไรค์,コルトレイク,科特赖克,코르트레이크"}, {"geoname_id": 2794070, "name": "Kortenberg", "ascii_name": "Kortenberg", "country": "BE", "lat": 50.88982, "lng": 4.54353, "population": 17774, "alt_names": "Cortenberg,Kortenberg,ke teng bei he,kwrtanbrg,Кортенберг,کورتانبرگ,科滕贝赫"}, {"geoname_id": 2794117, "name": "Kontich", "ascii_name": "Kontich", "country": "BE", "lat": 51.13213, "lng": 4.44706, "population": 20290, "alt_names": "Condacum,Contich,Kontich,Kontikh,kong di he,kwntyk,Контих,Контич,کونتیک,孔蒂赫"}, {"geoname_id": 2794166, "name": "Koksijde", "ascii_name": "Koksijde", "country": "BE", "lat": 51.11642, "lng": 2.63772, "population": 21957, "alt_names": "Coxyde,Koksejde,Koksijde,Koksijdo,Koksyde,ke ke sai de,kwksyzhd,Коксейде,Коксийде,کوکسیژد,科克赛德"}, {"geoname_id": 2794179, "name": "Koersel", "ascii_name": "Koersel", "country": "BE", "lat": 51.05909, "lng": 5.27121, "population": 18076, "alt_names": "Beringen (Koersel),Coursel"}, {"geoname_id": 2794190, "name": "Koekelberg", "ascii_name": "Koekelberg", "country": "BE", "lat": 50.86117, "lng": 4.33136, "population": 21984, "alt_names": "Brussel (Koekelberg),Bruxelles (Koekelberg),Koekelberg,Kukel'berg,Kukelberg,kokuruberu,ku ke er bei er he,kukelbeleuheu,kwykwlbrg,Кукелберг,Кукельберг,کوئکولبرگ,コクルベール,库克尔贝尔赫,쿠켈베르흐"}, {"geoname_id": 2794210, "name": "Knokke-Heist", "ascii_name": "Knokke-Heist", "country": "BE", "lat": 51.35, "lng": 3.26667, "population": 33781, "alt_names": "Knoke-Khajst,Knokke-Heist,Knokke-Khejst,Knokkne,Noke-Khajst,ke nuo ke-hai si te,keunokeoheiseuteu,knwkyst,kunokku=heisuto,Кноке-Хайст,Кнокке-Хейст,Ноке-Хајст,کنوکئست,クノック＝ヘイスト,克诺克－海斯特,크노커헤이스트"}, {"geoname_id": 2794507, "name": "Kessel-Lo", "ascii_name": "Kessel-Lo", "country": "BE", "lat": 50.88549, "lng": 4.73717, "population": 30215, "alt_names": "Kessel-Loo,Leuven (Kessel-Lo)"}, {"geoname_id": 2794663, "name": "Kasterlee", "ascii_name": "Kasterlee", "country": "BE", "lat": 51.24118, "lng": 4.96651, "population": 17765, "alt_names": "Casterle,Kasterlee"}, {"geoname_id": 2794730, "name": "Kapellen", "ascii_name": "Kapellen", "country": "BE", "lat": 51.31377, "lng": 4.43539, "population": 26410, "alt_names": "Cappellen,Kapelen,Kapellen,Kapellene,ka pei lun,kpwlan,Капелен,Капеллен,Капеллене,کپولان,卡佩伦"}, {"geoname_id": 2794788, "name": "Kalmthout", "ascii_name": "Kalmthout", "country": "BE", "lat": 51.38442, "lng": 4.47556, "population": 17485, "alt_names": "Calmpthout,Kalmthout"}, {"geoname_id": 2794860, "name": "Jumet", "ascii_name": "Jumet", "country": "BE", "lat": 50.4422, "lng": 4.43745, "population": 24510, "alt_names": "Charleroi (Jumet),Djumet"}, {"geoname_id": 2794914, "name": "Jette", "ascii_name": "Jette", "country": "BE", "lat": 50.87309, "lng": 4.33419, "population": 52490, "alt_names": "Brussel (Jette),Bruxelles (Jette),Jete,Jette,Zhet,jeteu,jetto,jyty,re te,zht,Жет,Йете,جيتي,ژت,ジェット,热特,제트"}, {"geoname_id": 2794981, "name": "Jambes", "ascii_name": "Jambes", "country": "BE", "lat": 50.45636, "lng": 4.87166, "population": 19658, "alt_names": "Djambe,Jambes,Namur (Jambes),jmbs,rang bu,zhambh,جمبس,ژامبه,让布"}, {"geoname_id": 2795009, "name": "Izegem", "ascii_name": "Izegem", "country": "BE", "lat": 50.91396, "lng": 3.21378, "population": 26382, "alt_names": "Iseghem,Izegem,Izzegem,Yseghem,Yzegem,ayzzhm,yi ze hai mu,Изегем,ایزژم,伊泽海姆"}, {"geoname_id": 2795011, "name": "Ixelles", "ascii_name": "Ixelles", "country": "BE", "lat": 50.83333, "lng": 4.36667, "population": 86671, "alt_names": "Elsene,Iksel,Iksel',Ixelles,Ixelles - Elsene,Ixelles-Elsene,Ixelles/Elsene,ayksl,igsel,ikuseru,yi ke sai er,Іксель,Иксел,Иксель,إيكسل,ایکسل,イクセル,伊克塞尔,익셀"}, {"geoname_id": 2795100, "name": "Ieper", "ascii_name": "Ieper", "country": "BE", "lat": 50.85114, "lng": 2.88569, "population": 35089, "alt_names": "Ieper,Iper,Ipr,Ipra,Ipro,Yper,Ypern,Ypr,Ypra,Ypras,Ypres,Ypry,aypr,ipeoleu,iperu,yi po er,yprys,Υπρ,Іпр,Ипер,Ипр,איפר,ایپر,یپریس,イーペル,伊珀尔,이퍼르"}, {"geoname_id": 2795113, "name": "Huy", "ascii_name": "Huy", "country": "BE", "lat": 50.51894, "lng": 5.23284, "population": 19973, "alt_names": "Hoei,Hu,Huy,Jui,awyy,hwy,i,yu yi,yui,Юи,Юї,אואי,اویی,هوي,ユイ,于伊,이"}, {"geoname_id": 2795261, "name": "Houthalen", "ascii_name": "Houthalen", "country": "BE", "lat": 51.03427, "lng": 5.37429, "population": 30050, "alt_names": "Houthaelen,Houthaelenberg,Houthalen-Helchteren (Houthalen)"}, {"geoname_id": 2795398, "name": "Hoogstraten", "ascii_name": "Hoogstraten", "country": "BE", "lat": 51.40029, "lng": 4.76034, "population": 18524, "alt_names": "Hoogstraeten,Hoogstraten,Khogstraten,awgstrtan,huo he si te la teng,hwkhstratn,Хогстратен,اوگسترتان,هوخستراتن,霍赫斯特拉滕"}, {"geoname_id": 2795730, "name": "Hoboken", "ascii_name": "Hoboken", "country": "BE", "lat": 51.17611, "lng": 4.34844, "population": 34443, "alt_names": "Antwerp (Hoboken),Hoboken-lez-Anvers"}, {"geoname_id": 2795783, "name": "Heverlee", "ascii_name": "Heverlee", "country": "BE", "lat": 50.86426, "lng": 4.69597, "population": 23278, "alt_names": "Heverle,Leuven (Heverlee),hai fu lei,海弗勒"}, {"geoname_id": 2795795, "name": "Heusy", "ascii_name": "Heusy", "country": "BE", "lat": 50.57457, "lng": 5.86618, "population": 15420, "alt_names": "Verviers (Heusy)"}, {"geoname_id": 2795800, "name": "Heusden", "ascii_name": "Heusden", "country": "BE", "lat": 51.03664, "lng": 5.28013, "population": 31017, "alt_names": "Heusden-Zolder (Heusden)"}, {"geoname_id": 2795908, "name": "Herzele", "ascii_name": "Herzele", "country": "BE", "lat": 50.88681, "lng": 3.89014, "population": 16523, "alt_names": "Herzele"}, {"geoname_id": 2795912, "name": "Herve", "ascii_name": "Herve", "country": "BE", "lat": 50.64083, "lng": 5.79353, "population": 16544, "alt_names": "Ehrv,Erv,Herf,Herve,arw,he er fu,Ерв,Эрв,ارو,赫尔夫"}, {"geoname_id": 2795930, "name": "Herstal", "ascii_name": "Herstal", "country": "BE", "lat": 50.66415, "lng": 5.62346, "population": 36503, "alt_names": "Ehrstal',Erstal,Heristalium,Herstal,Herstalis,Hesta,Kherstal,arstal,eleuseutal,erusutaru,he er si ta er,Ерстал,Херстал,Эрсталь,ارستال,エルスタル,赫尔斯塔尔,에르스탈"}, {"geoname_id": 2796009, "name": "Herentals", "ascii_name": "Herentals", "country": "BE", "lat": 51.17655, "lng": 4.83248, "population": 25912, "alt_names": "Herentals,Herenthals,Kherentals,arantl,he lun ta er si,Херенталс,ارانتل,赫伦塔尔斯"}, {"geoname_id": 2796012, "name": "Herent", "ascii_name": "Herent", "country": "BE", "lat": 50.90861, "lng": 4.67056, "population": 19218, "alt_names": "Herent,Kherent,aran,hai lun te,Херент,اران,海伦特"}, {"geoname_id": 2796132, "name": "Helchteren", "ascii_name": "Helchteren", "country": "BE", "lat": 51.05591, "lng": 5.38244, "population": 30050, "alt_names": "Houthalen-Helchteren (Helchteren)"}, {"geoname_id": 2796153, "name": "Heist-op-den-Berg", "ascii_name": "Heist-op-den-Berg", "country": "BE", "lat": 51.07537, "lng": 4.72827, "population": 37873, "alt_names": "Heist-op-den-Berg,Heyst-op-den-Berg,Khajst op den Berg,Khejst op den Berg,aystwp-dan-brg,hai si te ao pu deng bei er he,Хајст оп ден Берг,Хейст оп ден Берг,ایستوپ-دان-برگ,海斯特奥普登贝尔赫"}, {"geoname_id": 2796491, "name": "Hasselt", "ascii_name": "Hasselt", "country": "BE", "lat": 50.93106, "lng": 5.33781, "population": 77651, "alt_names": "Asselt,Gasselt,Haselt,Haseltas,Haselto,Hasselt,Khaselt,Khasselt,QHA,aslt,ha se er te,has sel th,haselteu,hasseruto,Άσσελτ,Гасселт,Хаселт,Хасселт,Հասելտ,اسلت,ฮัสเซลท์,ハッセルト,哈瑟尔特,하셀트"}, {"geoname_id": 2796542, "name": "Harelbeke", "ascii_name": "Harelbeke", "country": "BE", "lat": 50.85343, "lng": 3.30935, "population": 25978, "alt_names": "Hailebeke,Harelbeke,Harelbeke vald,Harelbekė,Harlebeke,Kharelbeke,Oarelbeke,ha lei er bei ke,Харелбеке,ارل‌بک,哈勒尔贝克"}, {"geoname_id": 2796637, "name": "Hamme", "ascii_name": "Hamme", "country": "BE", "lat": 51.09822, "lng": 4.13705, "population": 22891, "alt_names": "Ama,Hame,Hamme,Hamė,Khame,Khamme,am,ha mo,Хаме,Хамме,ام,哈默"}, {"geoname_id": 2796696, "name": "Halle", "ascii_name": "Halle", "country": "BE", "lat": 50.73385, "lng": 4.23454, "population": 34479, "alt_names": "Galle,Hal,Halle,Halle i Belgia,Khale,Khalle,al,ha lai,halh,Галле,Хале,Халле,ال,هاله,哈莱"}, {"geoname_id": 2796833, "name": "Haaltert", "ascii_name": "Haaltert", "country": "BE", "lat": 50.90634, "lng": 4.00093, "population": 17129, "alt_names": "Haaltert,Haeltert"}, {"geoname_id": 2797096, "name": "Grivegnée", "ascii_name": "Grivegnee", "country": "BE", "lat": 50.62148, "lng": 5.61101, "population": 21057, "alt_names": "Liege (Grivegnee),Liège (Grivegnée)"}, {"geoname_id": 2797114, "name": "Grimbergen", "ascii_name": "Grimbergen", "country": "BE", "lat": 50.93409, "lng": 4.37213, "population": 37000, "alt_names": "Grimbergen,Grimberghen,Xrimberxen,grymbrzhan,he lin bei heng,Гримберген,Խրիմբերխեն,گریمبرژان,赫林贝亨"}, {"geoname_id": 2797532, "name": "Gilly", "ascii_name": "Gilly", "country": "BE", "lat": 50.42449, "lng": 4.4789, "population": 20043, "alt_names": "Charleroi (Gilly),Djili,Djilî"}, {"geoname_id": 2797638, "name": "Geraardsbergen", "ascii_name": "Geraardsbergen", "country": "BE", "lat": 50.77343, "lng": 3.88223, "population": 30807, "alt_names": "Geeraardsbergen,Geraardsbergen,Gerardsbergen,Grammont,he la er ci bei heng,zhrardzbrzhan,Гераардсберген,Герардсберген,ژراردزبرژان,赫拉尔兹贝亨"}, {"geoname_id": 2797652, "name": "Gentbrugge", "ascii_name": "Gentbrugge", "country": "BE", "lat": 51.03692, "lng": 3.76509, "population": 15885, "alt_names": "Gentbrugge"}, {"geoname_id": 2797656, "name": "Gent", "ascii_name": "Gent", "country": "BE", "lat": 51.05, "lng": 3.71667, "population": 265086, "alt_names": "GNE,Gaent,Gand,Gandavum,Gandawa,Gande,Gant,Gante,Ganti,Gend,Gent,Gentas,Gente,Gento,Ghent,Gint,Gænt,gen te,genta,ghnt,gnt,henteu,hento,jenta,jnt,ken t,khenta,khnt,Γάνδη,Гент,Գենտ,גנט,جنت,خنت,غنت,غینٹ,खेंट,गेंट,জেন্ট,เกนต์,ဂင့်မြို့,გენტი,ヘント,根特,헨트"}, {"geoname_id": 2797670, "name": "Genk", "ascii_name": "Genk", "country": "BE", "lat": 50.965, "lng": 5.50082, "population": 63666, "alt_names": "Genck,Genk,Генк"}, {"geoname_id": 2797713, "name": "Gembloux", "ascii_name": "Gembloux", "country": "BE", "lat": 50.56149, "lng": 4.69889, "population": 21676, "alt_names": "Djiblou,Gembloers,Gembloux,Gemblua,Geminiacum,Jembloux,Zamblu,Zhamblu,janburu,jangbeullu,rang bu lu,zhamblw,Žamblu,Гемблуа,Жамблу,ژامبلو,ジャンブルー,让布卢,장블루"}, {"geoname_id": 2797779, "name": "Geel", "ascii_name": "Geel", "country": "BE", "lat": 51.16557, "lng": 4.98917, "population": 34697, "alt_names": "Geel,Gel,Gelis,Gheel,he er,heil,heru,zhl,Геел,Гел,ژل,ヘール,赫尔,헤일"}, {"geoname_id": 2797844, "name": "Ganshoren", "ascii_name": "Ganshoren", "country": "BE", "lat": 50.87065, "lng": 4.31531, "population": 24859, "alt_names": "Brussel (Ganshoren),Bruxelles (Ganshoren),Gansgoren,Ganshoren,Ganskhoren,gangsolang,ganshoan,ganshwran,han si huo lun,Гансгорен,Гансхорен,گانشوران,ガンショアン,汉斯霍伦,강소랑"}, {"geoname_id": 2798023, "name": "Frameries", "ascii_name": "Frameries", "country": "BE", "lat": 50.40578, "lng": 3.89603, "population": 20598, "alt_names": "Frameri,Frameris,Framrie,Framriye,frmwrh,Фрамери,Фрамерис,فرموره"}, {"geoname_id": 2798139, "name": "Forest", "ascii_name": "Forest", "country": "BE", "lat": 50.81678, "lng": 4.32775, "population": 56254, "alt_names": "Brussel (Vorst),Bruxelles (Forest),Fore,Forest,Forest-Vorst,Forest/Vorst,Vorst,foresuto,fu lei,fwrh,pole,Форе,Форест,فوره,フォレスト,福雷,포레"}, {"geoname_id": 2798297, "name": "Fleurus", "ascii_name": "Fleurus", "country": "BE", "lat": 50.48351, "lng": 4.55006, "population": 22080, "alt_names": "Fl'orjus,Flerus,Fleuru,Fljorjus,flwrw,fururyusu,peulloelwiseu,Флерус,Фльорюс,Флёрюс,فلورو,フルーリュス,플뢰뤼스"}, {"geoname_id": 2798301, "name": "Fléron", "ascii_name": "Fleron", "country": "BE", "lat": 50.61516, "lng": 5.68062, "population": 15994, "alt_names": "Fleron,flrwn,fu lai long,Флерон,فلرون,弗莱龙"}, {"geoname_id": 2798307, "name": "Flémalle-Haute", "ascii_name": "Flemalle-Haute", "country": "BE", "lat": 50.59994, "lng": 5.44471, "population": 25144, "alt_names": "Flemalle (Flemalle-Haute),Flémalle (Flémalle-Haute)"}, {"geoname_id": 2798551, "name": "Evergem", "ascii_name": "Evergem", "country": "BE", "lat": 51.11306, "lng": 3.70976, "population": 31615, "alt_names": "Ehvergem,Evergem,Everghem Rabot,ai fu hai mu,aywrzhm,Евергем,Эвергем,ایورژم,埃弗海姆"}, {"geoname_id": 2798554, "name": "Evere", "ascii_name": "Evere", "country": "BE", "lat": 50.87441, "lng": 4.39905, "population": 41667, "alt_names": "Brussel (Evere),Bruxelles (Evere),Ehvere,Ever,Evere,ai wei lei,awr,ebeleo,evuere,Евер,Евере,Эвере,اور,エヴェレ,埃韦勒,에베러"}, {"geoname_id": 2798573, "name": "Eupen", "ascii_name": "Eupen", "country": "BE", "lat": 50.6279, "lng": 6.03647, "population": 18029, "alt_names": "Ehjpen,Ejpen,Epen,Epenas,Eupe,Eupen,Eypen,Neyaw,Neyåw,Ojpen,ao yi peng,awpan,oipen,Ейпен,Епен,Ойпен,Эйпен,Էյպեն,اوپان,オイペン,奥伊彭,오이펜"}, {"geoname_id": 2798578, "name": "Etterbeek", "ascii_name": "Etterbeek", "country": "BE", "lat": 50.83272, "lng": 4.38835, "population": 48344, "alt_names": "Ehtterbek,Eterbek,Etermpeek,Etterbeek,Etterbek,Ietrebecca,ai te er bei ke,aytrbyk,aytrbyyk,eteleubeikeu,eterubeku,Έτερμπεεκ,Етербек,Еттербек,Эттербек,إيتربيك,ایتربیئک,エテルベーク,埃特尔贝克,에테르베이크"}, {"geoname_id": 2798873, "name": "Ekeren", "ascii_name": "Ekeren", "country": "BE", "lat": 51.28087, "lng": 4.41813, "population": 23300, "alt_names": "Antwerpen (Ekeren),Eeckeren"}, {"geoname_id": 2798987, "name": "Eeklo", "ascii_name": "Eeklo", "country": "BE", "lat": 51.18703, "lng": 3.55654, "population": 19116, "alt_names": "Eecloo,Eeklo,Eekloo,Ehklo,Eklo,ai ke luo,aklw,Êeklo,Екло,Экло,اکلو,埃克洛"}, {"geoname_id": 2799007, "name": "Edegem", "ascii_name": "Edegem", "country": "BE", "lat": 51.15662, "lng": 4.44504, "population": 21839, "alt_names": "Edegem,Edeghem"}, {"geoname_id": 2799090, "name": "Duffel", "ascii_name": "Duffel", "country": "BE", "lat": 51.09554, "lng": 4.50903, "population": 16011, "alt_names": "Duffel"}, {"geoname_id": 2799226, "name": "Dour", "ascii_name": "Dour", "country": "BE", "lat": 50.39583, "lng": 3.77792, "population": 16861, "alt_names": "Dou,Doû,Dur,du er,dwr,Дур,دور,杜尔"}, {"geoname_id": 2799365, "name": "Dilbeek", "ascii_name": "Dilbeek", "country": "BE", "lat": 50.84799, "lng": 4.25972, "population": 39482, "alt_names": "Dilbeek,Dilbek,Zibbeek,di er bei ke,dilbek,dylbyk,Дилбек,دیلبئک,迪尔贝克"}, {"geoname_id": 2799369, "name": "Diksmuide", "ascii_name": "Diksmuide", "country": "BE", "lat": 51.03248, "lng": 2.86384, "population": 15515, "alt_names": "Diksmude,Diksmuide,Diksmuiden,Dixmude,Dixmuide,Dixmuiden,Smude"}, {"geoname_id": 2799397, "name": "Diest", "ascii_name": "Diest", "country": "BE", "lat": 50.98923, "lng": 5.05062, "population": 22516, "alt_names": "Diest,Dijst,Distas,di si te,dist,dyh,Дийст,دیه,ดีสต์,迪斯特"}, {"geoname_id": 2799412, "name": "Diepenbeek", "ascii_name": "Diepenbeek", "country": "BE", "lat": 50.90769, "lng": 5.41875, "population": 17699, "alt_names": ""}, {"geoname_id": 2799478, "name": "Deurne", "ascii_name": "Deurne", "country": "BE", "lat": 51.22134, "lng": 4.46595, "population": 78747, "alt_names": "Deurne"}, {"geoname_id": 2799496, "name": "Destelbergen", "ascii_name": "Destelbergen", "country": "BE", "lat": 51.05952, "lng": 3.79899, "population": 16853, "alt_names": "Destelbergen,dai si te er bei heng,dtlbrzhan,Дестелберген,دتلبرژان,代斯特尔贝亨"}, {"geoname_id": 2799645, "name": "Dendermonde", "ascii_name": "Dendermonde", "country": "BE", "lat": 51.02869, "lng": 4.10106, "population": 45673, "alt_names": "Dendermonde,Teneramonda,Termonde,dandrmwnd,dendeleumondeo,dendermonde,denderumonde,deng de er meng de,dndrmwndh,Дендермонде,דנדרמונדה,داندرموند,デンデルモンデ,登德尔蒙德,덴데르몬더"}, {"geoname_id": 2799647, "name": "Denderleeuw", "ascii_name": "Denderleeuw", "country": "BE", "lat": 50.88506, "lng": 4.07601, "population": 16969, "alt_names": "Denderleeuw"}, {"geoname_id": 2799746, "name": "Deinze", "ascii_name": "Deinze", "country": "BE", "lat": 50.98175, "lng": 3.53096, "population": 29815, "alt_names": "Dajnze,Deinze,Dejnze,Deynze,dai yin ze,dnz,Дайнзе,Дейнзе,دنز,代因泽"}, {"geoname_id": 2800063, "name": "Courcelles", "ascii_name": "Courcelles", "country": "BE", "lat": 50.46379, "lng": 4.3747, "population": 29473, "alt_names": "Courcele,Courcelles,Curticellae,Kursel,Kursel',kwrsl,kwrsyl,Курсел,Курсель,كورسيل,کورسل"}, {"geoname_id": 2800220, "name": "Colfontaine", "ascii_name": "Colfontaine", "country": "BE", "lat": 50.4141, "lng": 3.85569, "population": 19964, "alt_names": "Colfontinne,Kol'fonten,Kolfonten,kwlfwntn,Колфонтен,Кольфонтен,کولفونتن"}, {"geoname_id": 2800438, "name": "Chaudfontaine", "ascii_name": "Chaudfontaine", "country": "BE", "lat": 50.5828, "lng": 5.6341, "population": 20960, "alt_names": "Chaudfontaine,Shofonten,Tchofontinne,Tchôfontinne,shao de fang dan,shwfwntn,Шофонтен,شوفونتن,绍德方丹"}, {"geoname_id": 2800445, "name": "Châtelineau", "ascii_name": "Chatelineau", "country": "BE", "lat": 50.41499, "lng": 4.52016, "population": 17166, "alt_names": "Chatelineau,Châtelineau"}, {"geoname_id": 2800448, "name": "Châtelet", "ascii_name": "Chatelet", "country": "BE", "lat": 50.40338, "lng": 4.52826, "population": 35238, "alt_names": "Castellarium,Chatelet,Châtelet,Shatle,Tcheslet,shtlh,Шатле,شتله"}, {"geoname_id": 2800481, "name": "Charleroi", "ascii_name": "Charleroi", "country": "BE", "lat": 50.41136, "lng": 4.44448, "population": 200132, "alt_names": "Carleroe,Carleroé,Caroloregium,Charleroi,Sarlero,Sarleroua,Sarlerua,Sarlrua,Sharleroa,Sharlerua,Sharlroa,Tchalerwe,Tchålerwè,char lex raw,charlyrwyy,sha lei luo wa,sharlerua,sharlrwa,sharlwrwa,sharururowa,syaleullua,Ŝarlero,Šarlerua,Šarlruā,Σαρλερουά,Шарлероа,Шарлеруа,Шарлроа,Շառլեռուա,שרלרואה,شارلروآ,شارلوروا,چارلیروئی,ชาร์เลอรัว,შარლერუა,シャルルロワ,沙勒罗瓦,샤를루아"}, {"geoname_id": 2800866, "name": "Brussels", "ascii_name": "Brussels", "country": "BE", "lat": 50.85045, "lng": 4.34878, "population": 1019022, "alt_names": "An Bhruiseil,An Bhruiséil,BRU,Brasels,Breissel,Brisel,Brisele,Briuselis,Brjuksel,Brjusel',Brjussel',Brueksel,Bruessel,Bruesszel,Bruiseal,Bruksel,Bruksela,Brukseli,Brukselo,Brusehl',Brusel,Brusela,Bruselas,Bruseles,Bruselj,Bruselo,Brusel·les,Brussel,Brussele,Brussels,Brussel·les,Bruxel,Bruxelas,Bruxellae,Bruxelles,Brwsel,Bryssel,Bryusel,Bryxelles,Bréissel,Brüksel,Brüssel,Brüsszel,Citta di Bruxelles,Città di Bruxelles,City of Brussels,Kota Brusel,beulwisel,bi lu xi,braselasa,braselsa,brassels,briuseli,brwksl,brysl,bu lu sai er,buryusseru,Βρυξέλλες,Брисел,Брусэль,Брюксел,Брюсель,Брюссель,Բրյուսել,בריסל,بروكسل,بروکسل,بريۇسسېل,ܒܪܘܟܣܠ,ब्रसेल्स,ব্রাসেলস,บรัสเซลส์,ბრიუსელი,ブリュッセル,布魯塞爾,布鲁塞尔,比律悉,브뤼셀"}, {"geoname_id": 2800931, "name": "Brugge", "ascii_name": "Brugge", "country": "BE", "lat": 51.20892, "lng": 3.22424, "population": 118509, "alt_names": "Brige,Briuge,Briugė,Briz,Brizh,Briž,Brjuge,Brjugge,Broegge,Brudje,Bruegge,Brugae,Brugeh,Bruges,Brugge,Bruggy,Brugia,Brugo,Bruhhe,Brujas,Bruxas,Bruza,Bruĝo,Brycg,Brygge,Bryugge,Bryz,Brögge,Brügge,beulwiheo,briuge,bruch,bruja,brwj,brwkhh,brwyz,brwz,bu lu he,bu lu ri li shi zhong xin,buruhhe,Μπρυζ,Бриж,Бругэ,Брюгге,Брюге,Բրյուգգե,ברוז,بروج,بروخه,برویز,ब्रूज,บรูช,ბრიუგე,ブルッヘ,布吕赫,布鲁日历史中心,브뤼허"}, {"geoname_id": 2801117, "name": "Brasschaat", "ascii_name": "Brasschaat", "country": "BE", "lat": 51.2912, "lng": 4.49182, "population": 37040, "alt_names": "Braschatas,Braskhat,Brasschaat,Brasschaep,Brasschaet,braskhat,bu la si ha te,Брасхат,براسخات,布拉斯哈特"}, {"geoname_id": 2801150, "name": "Braine-le-Comte", "ascii_name": "Braine-le-Comte", "country": "BE", "lat": 50.60979, "lng": 4.14658, "population": 20133, "alt_names": "'s-Gravenbrakel,Braine-le-Comte,Brem-le-Kont,Bren l'o Kont,Bren-le-Kont,Brinne-e-Hinnot,s-Gravenbrakel,Брем-ле-Конт,Брен льо Конт,Брен-ле-Конт,برن‌لوکمت"}, {"geoname_id": 2801154, "name": "Braine-l'Alleud", "ascii_name": "Braine-l'Alleud", "country": "BE", "lat": 50.68363, "lng": 4.36784, "population": 37512, "alt_names": "Braine-l'Alleud,Braine-l’Alleud,Bren l'Al'o,Bren l'Ale,Bren-l'Alljo,Brinne-l'-Alou,Eigenbrakel,bu lai en la lei,Брен л'Але,Брен л'Альо,Брен-л'Аллё,برن‌للو,布赖恩拉勒"}, {"geoname_id": 2801226, "name": "Boussu", "ascii_name": "Boussu", "country": "BE", "lat": 50.43417, "lng": 3.7944, "population": 20058, "alt_names": "Boussu,Boussu-dle-Mont,Boussu-dlé-Mont,Boussu-lez-Mons,Busju,Bussju,bwsw,Боуссу,Буссю,Бусю,بوسو"}, {"geoname_id": 2801447, "name": "Bornem", "ascii_name": "Bornem", "country": "BE", "lat": 51.09716, "lng": 4.24364, "population": 19997, "alt_names": "Bornem,Bornhem,bo er ne mu,bwrnm,Борнем,بورنم,博尔讷姆"}, {"geoname_id": 2801471, "name": "Borgerhout", "ascii_name": "Borgerhout", "country": "BE", "lat": 51.20957, "lng": 4.43539, "population": 46087, "alt_names": "Antwerpen (Borgerhout),Borgerhout,Borgerhouts,Borgerkhaut,Borgerkhout,bo he er hao te,brgrhwt,Боргерхаут,Боргерхоут,Բորխերհաութ,برگرهوت,博赫尔豪特,博赫爾豪特"}, {"geoname_id": 2801494, "name": "Boom", "ascii_name": "Boom", "country": "BE", "lat": 51.09242, "lng": 4.3717, "population": 15810, "alt_names": "Boom"}, {"geoname_id": 2801824, "name": "Blauwput", "ascii_name": "Blauwput", "country": "BE", "lat": 50.88587, "lng": 4.72415, "population": 30215, "alt_names": ""}, {"geoname_id": 2801858, "name": "Blankenberge", "ascii_name": "Blankenberge", "country": "BE", "lat": 51.31306, "lng": 3.13227, "population": 18000, "alt_names": "Blank'nberge,Blankenberge,Blankenberghe,Blanknberge,blanknbrzh,bu lan ken bei er he,burankenberuhe,Бланкенберге,بلانکنبرژ,ブランケンベルヘ,布兰肯贝尔赫"}, {"geoname_id": 2801922, "name": "Binche", "ascii_name": "Binche", "country": "BE", "lat": 50.41155, "lng": 4.16469, "population": 32030, "alt_names": "Bensh,Bince,Binche,Binchium,baengsyu,banshu,bnsh,Бенш,بنش,バンシュ,뱅슈"}, {"geoname_id": 2801924, "name": "Bilzen", "ascii_name": "Bilzen", "country": "BE", "lat": 50.87325, "lng": 5.5184, "population": 29622, "alt_names": "Bilsen,Bilze,Bilzen,bi er ceng,bil sein,bylzan,Билзен,Білзен,بیلزان,บิลเซิน,比尔曾"}, {"geoname_id": 2802031, "name": "Beveren", "ascii_name": "Beveren", "country": "BE", "lat": 51.21187, "lng": 4.25633, "population": 45179, "alt_names": "Beveren,Beveren Waas,Beveren-Waes,Beverenas,bebeleon,bei fu lun,bwwran,Беверен,بووران,贝弗伦,베베런"}, {"geoname_id": 2802039, "name": "Bevere", "ascii_name": "Bevere", "country": "BE", "lat": 50.8496, "lng": 3.5873, "population": 15311, "alt_names": "Bevere"}, {"geoname_id": 2802170, "name": "Beringen", "ascii_name": "Beringen", "country": "BE", "lat": 51.04954, "lng": 5.22606, "population": 40930, "alt_names": "Beeringen,Beringen,Beringenas,Beringene,Berringe,be xri ng khen,bei ling en,brnzhan,Беринген,Берингене,برنژان,เบอริงเคน,贝灵恩"}, {"geoname_id": 2802247, "name": "Berchem-Sainte-Agathe", "ascii_name": "Berchem-Sainte-Agathe", "country": "BE", "lat": 50.86567, "lng": 4.29557, "population": 25162, "alt_names": "Berchem-Sainte-Agathe,Berchem-Sainte-Agathe - Sint-Agatha-Berchem,Berchem-Sainte-Agathe/Sint-Agatha-Berchem,Berkem-Sent-Agat,Brussel (Sint-Agatha-Berchem),Bruxelles (Berchem-Sainte-Agathe),Sint Agata - Berkhem,Sint-Agatha-Berchem,bei er ke mu-sheng a jia te,shinto=agata=berushemu,synt-agata-brkhm,Беркем-Сент-Агат,Синт Агата - Берхем,سینت-آگاتا-برخم,シント＝アガタ＝ベルシェム,贝尔克姆-圣阿加特"}, {"geoname_id": 2802249, "name": "Berchem", "ascii_name": "Berchem", "country": "BE", "lat": 51.19021, "lng": 4.43264, "population": 43511, "alt_names": "Antwerpen (Berchem)"}, {"geoname_id": 2802433, "name": "Beersel", "ascii_name": "Beersel", "country": "BE", "lat": 50.76589, "lng": 4.3002, "population": 23228, "alt_names": "Beersel,Bersel,bei er sai er,byrsl,Берсел,بئرسل,贝尔塞尔"}, {"geoname_id": 2802435, "name": "Beerse", "ascii_name": "Beerse", "country": "BE", "lat": 51.31927, "lng": 4.85304, "population": 16208, "alt_names": "Beerse,Beersse"}, {"geoname_id": 2802743, "name": "Balen", "ascii_name": "Balen", "country": "BE", "lat": 51.16837, "lng": 5.17027, "population": 19978, "alt_names": "Baelen,Balen,Balen-sur-Nethe,ba lun,blan,Бален,بلان,巴伦"}, {"geoname_id": 2802960, "name": "Auderghem", "ascii_name": "Auderghem", "country": "BE", "lat": 50.81667, "lng": 4.43333, "population": 33984, "alt_names": "Anderghen,Audergem,Auderghem,Auderghem - Oudergem,Auderghem-Oudergem,Auderghem/Oudergem,Brussel (Oudergem),Bruxelles (Auderghem),Odergem,Oudergem,ao de er he mu,awdrgm,odeleugem,oderugemu,Аудергем,Одергем,اودرگم,オーデルゲム,奥德尔赫姆,오데르겜"}, {"geoname_id": 2803010, "name": "Ath", "ascii_name": "Ath", "country": "BE", "lat": 50.62937, "lng": 3.77801, "population": 26681, "alt_names": "Aat,At,Ate,Ath,Athum,at,Ât,Ατ,Ат,ات"}, {"geoname_id": 2803030, "name": "Assebroek", "ascii_name": "Assebroek", "country": "BE", "lat": 51.19367, "lng": 3.2623, "population": 19772, "alt_names": "Assebroek,Assebroeke,Assebrouck"}, {"geoname_id": 2803033, "name": "Asse", "ascii_name": "Asse", "country": "BE", "lat": 50.91011, "lng": 4.19836, "population": 28985, "alt_names": "Ase,Assche,Asse,Asso,a se,as,aseo,Асе,Ассе,Ассо,اس,阿瑟,아서"}, {"geoname_id": 2803073, "name": "Arlon", "ascii_name": "Arlon", "country": "BE", "lat": 49.68333, "lng": 5.81667, "population": 26179, "alt_names": "Aarle,Aarlen,Arel,Arlon,Arlona,Arlonas,Arloni vald,Orolaunum,QON,a er long,aleullong,arln,arlwn,aruron,Årlon,Αρλόν,Арлон,Արլոն,ארלון,آرلن,آرلون,アルロン,阿爾隆,아를롱"}, {"geoname_id": 2803138, "name": "Antwerp", "ascii_name": "Antwerp", "country": "BE", "lat": 51.22047, "lng": 4.40026, "population": 529247, "alt_names": "ANR,Amberes,Amberis,Amversa,Anberes,Antuairp,Antuerpen,Antuerpia,Antuérpia,Antverpen,Antverpenas,Antverpene,Antverpeno,Antverpens,Antverpia,Antverpy,Antwarp,Antwerp,Antwerpa,Antwerpe,Antwerpen,Antwerpia,Antwerpium,Antwerpn,Antwyrpijo,Antwérp,Anvers,Anversa,Anverse,Anvèrs,Anvérse,Kota Antwerpen,On-thit-vi-phu,amtavarpa,an te wei pu,anteubeleupen,antouerupen,antowapu,antverp,antwrb,antwrp,antwyrb,Ôn-thi̍t-ví-phú,Αμβέρσα,Антверпен,Անտվերպեն,אנטווערפן,אנטוורפן,آنتورپ,أنتويرب,انتورب,انتويرب,انٹیورپ,अँटवर्प,ஆண்ட்வெர்ப்,ആന്റ്‌വെർപ്,แอนต์เวิร์ป,အန့်တွပ်မြို့,ანტვერპენი,アントウェルペン,アントワープ,安特卫普,安特衞普,안트베르펜"}, {"geoname_id": 2803160, "name": "Ans", "ascii_name": "Ans", "country": "BE", "lat": 50.6623, "lng": 5.52029, "population": 27297, "alt_names": "Ans,Anse,an,ang si,ansu,Анс,آن,アンス,昂斯"}, {"geoname_id": 2803201, "name": "Anderlecht", "ascii_name": "Anderlecht", "country": "BE", "lat": 50.83619, "lng": 4.31454, "population": 160553, "alt_names": "Anderlacum,Anderlech,Anderlecht,Anderleht,Anderlek,Anderlekht,Anderlihto,Anderliĥto,Brussel (Anderlecht),Bruxelles (Anderlecht),an de lai he te,andeoleheuteu,anderurehito,andrlkht,andrlsht,xandexr lekht,Андерлехт,آندرلخت,آندرلشت,أندرلخت,อันเดอร์เลคต์,アンデルレヒト,安德莱赫特,안더레흐트"}, {"geoname_id": 2803204, "name": "Andenne", "ascii_name": "Andenne", "country": "BE", "lat": 50.48941, "lng": 5.09513, "population": 24055, "alt_names": "Anden,Andene,Andenn,Andenne,andn,ang dai ne,Анден,Анденн,آندن,昂代讷"}, {"geoname_id": 2803429, "name": "Aarschot", "ascii_name": "Aarschot", "country": "BE", "lat": 50.98715, "lng": 4.83695, "population": 27656, "alt_names": "Aarschot,Aarschoti vald,Aarshot,Aerschot,Arschotas,Arskhot,a er si huo te,aleuseuhos,arssht,arusukoto,Άαρσχοτ,Ааршот,Арсхот,آرسچوٹ,ارسشت,アールスコート,阿尔斯霍特,아르스홋"}, {"geoname_id": 2803443, "name": "Aalter", "ascii_name": "Aalter", "country": "BE", "lat": 51.09017, "lng": 3.44693, "population": 18802, "alt_names": "Aalter,Aeltre,Alter,a er te,alth,Άαλτερ,Алтер,آلٹیر,الته,阿尔特"}, {"geoname_id": 2803448, "name": "Aalst", "ascii_name": "Aalst", "country": "BE", "lat": 50.93604, "lng": 4.0355, "population": 77534, "alt_names": "Aals,Aalst,Alost,Alosti,Alostum,Alst,Alsta,Alstas,Alósti,Aosite,Halosta,Oalst,Àosītè,Ālsta"}, {"geoname_id": 725578, "name": "Yambol", "ascii_name": "Yambol", "country": "BG", "lat": 42.48243, "lng": 26.50006, "population": 63656, "alt_names": "Iambol,JAM,Jambol,Jamboli,Yambol,Yampolis,iyambala,yamabola,yambwl,yanboru,yaምboል,Ямбол,يامبول,یامبول,यामबोल,ইয়াম্বল,ਯਾਮਬੋਲ,ያምቦል,ヤンボル"}, {"geoname_id": 725712, "name": "Vratsa", "ascii_name": "Vratsa", "country": "BG", "lat": 43.21052, "lng": 23.56312, "population": 49569, "alt_names": "Ivraca,Vraca,Vracae,Vrata,Vratca,Vratsa,Vrattsa,Vratza,Vrața,Wraca,Wraza,beulacha,bhratsa,fratsa,fu la cha,viratisa,vratasa,vratsa,vuratsua,wratsa,İvraca,Βράτσα,Врацæ,Враца,וראצה,فراتسا,وراتسا,ڤراتسا,व्रात्सा,ভ্রাৎসা,ਵ੍ਰਾਤਸਾ,ቭራትሳ,ヴラツァ,弗拉察,브라차"}, {"geoname_id": 725905, "name": "Vidin", "ascii_name": "Vidin", "country": "BG", "lat": 43.99159, "lng": 22.88236, "population": 34797, "alt_names": "Vidin,Vidinas,Vidine,Vidinu,Vintin,Widin,Widyn,Widyń,bhidina,bidin,fydn,vidina,vidini,vuidin,wdyn,wei ding,wydyn,Βίντιν,Видин,Видинъ,וידין,فيدن,ودین,ویدین,विदिन,ভিডিন,ਵਿਡਿਨ,ቪዲን,ヴィディン,維丁,비딘"}, {"geoname_id": 725988, "name": "Velingrad", "ascii_name": "Velingrad", "country": "BG", "lat": 42.02754, "lng": 23.99155, "population": 20286, "alt_names": "Velingrad,Velingradas,Velinkrant,Welingrad,bellingeuladeu,bhelinagrada,fylynghrad,velinagrada,veliniግradi,vueringurato,wei lin ge lei,wlyngrad,wylngrad,wylnګrad,Βέλιγκραντ,Велинград,ולינגראד,فيلينغراد,ولینگراد,ویلنګراد,ویلنگراد,ڤێلینگراد,वेलिनग्राद,ভেলিনগ্রাদ,ਵੇਲਿਨਗ੍ਰਾਡ,ቬሊንግራድ,ヴェリングラト,韋林格勒,벨린그라드"}, {"geoname_id": 725993, "name": "Veliko Tŭrnovo", "ascii_name": "Veliko Turnovo", "country": "BG", "lat": 43.08124, "lng": 25.62904, "population": 59166, "alt_names": "Tarnovo,Tarnowo,Ternovo,Tirnovo,Trnova,Trnovo,Turnovo,Tărnovo,Tărnowo,Tŭrnovo,Veliko Trnovo,Veliko Tarnovo,Veliko Tirnovo,Veliko Turnovo,Veliko Tyrnovo,Veliko Tărnovo,Veliko Tırnovo,Veliko Tүrnovo,Weliko Tarnowo,Wielkie Tyrnowo,bheliko tarnobho,fylykw tyrnwfw,veliko taranovo,veliko tarnovo,velikwe turinovo,vueriko・tarunovuo,wlykw trnww,wylykw trnww,Велико Търново,Велико Тырново,Велико Түрново,فيليكو تيرنوفو,ولیکو ترنوو,ویلیکو ترنوو,वेलिको टर्नोवो,ভেলিকো টার্নোভো,ਵੇਲਿਕੋ ਟਰਨੋਵੋ,ቬሊኮ ቱርኖቮ,ヴェリコ・タルノヴォ"}, {"geoname_id": 726050, "name": "Varna", "ascii_name": "Varna", "country": "BG", "lat": 43.21912, "lng": 27.91024, "population": 318737, "alt_names": "Barna,Odessos,Odessus,Stalin,VAR,Varna,Varna khot,Varnae,Várna,Warna,baleuna,bharna,farna,varana,varina,varna,vharna,vuaruna,wa er na,war na,warna,wʼrnh,Βάρνα,Варнæ,Варна,Варна хот,Վառնա,וארנה,فارنا,وارنا,वर्ना,व्हर्ना,ভার্না,ਵਾਰਨਾ,วาร์นา,ვარნა,ቫርና,ヴァルナ,瓦爾納,바르나"},